{
"type": "FeatureCollection",
"name": "All_Zipcodes_and_PO_Box_as_Centroids_for_King_County___zipcode_all_point",
"crs": { "type": "name", "properties": { "name": "urn:ogc:def:crs:OGC:1.3:CRS84" } },
"features": [
{ "type": "Feature", "properties": { "OBJECTID": 1, "ZIP": 98009, "ZIPCODE": "98009", "COUNTY": "033", "ZIP_TYPE": "PO Box", "PREFERRED_CITY": "BELLEVUE", "FEATURE_SOURCE": "Placed Point", "COUNTY_NAME": "King County" }, "geometry": { "type": "Point", "coordinates": [ -122.202454356642079, 47.62060126288501 ] } },
{ "type": "Feature", "properties": { "OBJECTID": 2, "ZIP": 98015, "ZIPCODE": "98015", "COUNTY": "033", "ZIP_TYPE": "PO Box", "PREFERRED_CITY": "BELLEVUE", "FEATURE_SOURCE": "Placed Point", "COUNTY_NAME": "King County" }, "geometry": { "type": "Point", "coordinates": [ -122.186795283234304, 47.611861281918955 ] } },
{ "type": "Feature", "properties": { "OBJECTID": 3, "ZIP": 98025, "ZIPCODE": "98025", "COUNTY": "033", "ZIP_TYPE": "PO Box", "PREFERRED_CITY": "HOBART", "FEATURE_SOURCE": "Placed Point", "COUNTY_NAME": "King County" }, "geometry": { "type": "Point", "coordinates": [ -121.972726333817846, 47.419935343770256 ] } },
{ "type": "Feature", "properties": { "OBJECTID": 4, "ZIP": 98035, "ZIPCODE": "98035", "COUNTY": "033", "ZIP_TYPE": "PO Box", "PREFERRED_CITY": "KENT", "FEATURE_SOURCE": "Placed Point", "COUNTY_NAME": "King County" }, "geometry": { "type": "Point", "coordinates": [ -122.23441579224297, 47.380592394834082 ] } },
{ "type": "Feature", "properties": { "OBJECTID": 5, "ZIP": 98041, "ZIPCODE": "98041", "COUNTY": "033", "ZIP_TYPE": "PO Box", "PREFERRED_CITY": "BOTHELL", "FEATURE_SOURCE": "Placed Point", "COUNTY_NAME": "King County" }, "geometry": { "type": "Point", "coordinates": [ -122.199724352481567, 47.761149872279788 ] } },
{ "type": "Feature", "properties": { "OBJECTID": 6, "ZIP": 98062, "ZIPCODE": "98062", "COUNTY": "033", "ZIP_TYPE": "PO Box", "PREFERRED_CITY": "SEAHURST", "FEATURE_SOURCE": "Placed Point", "COUNTY_NAME": "King County" }, "geometry": { "type": "Point", "coordinates": [ -122.361610249976408, 47.466936901445344 ] } },
{ "type": "Feature", "properties": { "OBJECTID": 7, "ZIP": 98063, "ZIPCODE": "98063", "COUNTY": "033", "ZIP_TYPE": "PO Box", "PREFERRED_CITY": "FEDERAL WAY", "FEATURE_SOURCE": "Placed Point", "COUNTY_NAME": "King County" }, "geometry": { "type": "Point", "coordinates": [ -122.314201649431297, 47.30712777882092 ] } },
{ "type": "Feature", "properties": { "OBJECTID": 8, "ZIP": 98064, "ZIPCODE": "98064", "COUNTY": "033", "ZIP_TYPE": "PO Box", "PREFERRED_CITY": "KENT", "FEATURE_SOURCE": "Placed Point", "COUNTY_NAME": "King County" }, "geometry": { "type": "Point", "coordinates": [ -122.199165066478002, 47.387373098647579 ] } },
{ "type": "Feature", "properties": { "OBJECTID": 9, "ZIP": 98071, "ZIPCODE": "98071", "COUNTY": "033", "ZIP_TYPE": "PO Box", "PREFERRED_CITY": "AUBURN", "FEATURE_SOURCE": "Placed Point", "COUNTY_NAME": "King County" }, "geometry": { "type": "Point", "coordinates": [ -122.230054053042707, 47.310481879153706 ] } },
{ "type": "Feature", "properties": { "OBJECTID": 10, "ZIP": 98083, "ZIPCODE": "98083", "COUNTY": "033", "ZIP_TYPE": "PO Box", "PREFERRED_CITY": "KIRKLAND", "FEATURE_SOURCE": "Placed Point", "COUNTY_NAME": "King County" }, "geometry": { "type": "Point", "coordinates": [ -122.194421233998042, 47.67851851260356 ] } },
{ "type": "Feature", "properties": { "OBJECTID": 11, "ZIP": 98093, "ZIPCODE": "98093", "COUNTY": "033", "ZIP_TYPE": "PO Box", "PREFERRED_CITY": "FEDERAL WAY", "FEATURE_SOURCE": "Placed Point", "COUNTY_NAME": "King County" }, "geometry": { "type": "Point", "coordinates": [ -122.357513187297883, 47.30015300369358 ] } },
{ "type": "Feature", "properties": { "OBJECTID": 12, "ZIP": 98124, "ZIPCODE": "98124", "COUNTY": "033", "ZIP_TYPE": "PO Box", "PREFERRED_CITY": "SEATTLE", "FEATURE_SOURCE": "Placed Point", "COUNTY_NAME": "King County" }, "geometry": { "type": "Point", "coordinates": [ -122.328387427197555, 47.581518417513031 ] } },
{ "type": "Feature", "properties": { "OBJECTID": 13, "ZIP": 98138, "ZIPCODE": "98138", "COUNTY": "033", "ZIP_TYPE": "PO Box", "PREFERRED_CITY": "SEATTLE", "FEATURE_SOURCE": "Placed Point", "COUNTY_NAME": "King County" }, "geometry": { "type": "Point", "coordinates": [ -122.254990389498758, 47.456755637705506 ] } },
{ "type": "Feature", "properties": { "OBJECTID": 14, "ZIP": 98145, "ZIPCODE": "98145", "COUNTY": "033", "ZIP_TYPE": "PO Box", "PREFERRED_CITY": "SEATTLE", "FEATURE_SOURCE": "Placed Point", "COUNTY_NAME": "King County" }, "geometry": { "type": "Point", "coordinates": [ -122.31284486139792, 47.659517025247283 ] } },
{ "type": "Feature", "properties": { "OBJECTID": 15, "ZIP": 98160, "ZIPCODE": "98160", "COUNTY": "033", "ZIP_TYPE": "PO Box", "PREFERRED_CITY": "SEATTLE", "FEATURE_SOURCE": "Placed Point", "COUNTY_NAME": "King County" }, "geometry": { "type": "Point", "coordinates": [ -122.346375176962411, 47.733683398693174 ] } },
{ "type": "Feature", "properties": { "OBJECTID": 16, "ZIP": 98181, "ZIPCODE": "98181", "COUNTY": "033", "ZIP_TYPE": "Unique", "PREFERRED_CITY": "SEATTLE", "FEATURE_SOURCE": "Placed Point", "COUNTY_NAME": "King County" }, "geometry": { "type": "Point", "coordinates": [ -122.338619380061488, 47.611384054644574 ] } },
{ "type": "Feature", "properties": { "OBJECTID": 17, "ZIP": 98185, "ZIPCODE": "98185", "COUNTY": "033", "ZIP_TYPE": "Unique", "PREFERRED_CITY": "SEATTLE", "FEATURE_SOURCE": "Placed Point", "COUNTY_NAME": "King County" }, "geometry": { "type": "Point", "coordinates": [ -122.333624866559433, 47.606268348902965 ] } },
{ "type": "Feature", "properties": { "OBJECTID": 18, "ZIP": 98191, "ZIPCODE": "98191", "COUNTY": "033", "ZIP_TYPE": "Unique", "PREFERRED_CITY": "SEATTLE", "FEATURE_SOURCE": "Placed Point", "COUNTY_NAME": "King County" }, "geometry": { "type": "Point", "coordinates": [ -122.334453982314315, 47.6132078531056 ] } },
{ "type": "Feature", "properties": { "OBJECTID": 19, "ZIP": 98352, "ZIPCODE": "98352", "COUNTY": "053", "ZIP_TYPE": "Unique", "PREFERRED_CITY": "SUMNER", "FEATURE_SOURCE": "Placed Point", "COUNTY_NAME": "Pierce County" }, "geometry": { "type": "Point", "coordinates": [ -122.231312626889178, 47.21641302090373 ] } },
{ "type": "Feature", "properties": { "OBJECTID": 20, "ZIP": 98013, "ZIPCODE": "98013", "COUNTY": "053", "ZIP_TYPE": "PO Box", "PREFERRED_CITY": "BURTON", "FEATURE_SOURCE": "Placed Point", "COUNTY_NAME": "Pierce County" }, "geometry": { "type": "Point", "coordinates": [ -122.465592247557751, 47.390200293585835 ] } },
{ "type": "Feature", "properties": { "OBJECTID": 21, "ZIP": 98046, "ZIPCODE": "98046", "COUNTY": "061", "ZIP_TYPE": "PO Box", "PREFERRED_CITY": "LYNNWOOD", "FEATURE_SOURCE": "Placed Point", "COUNTY_NAME": "Snohomish County" }, "geometry": { "type": "Point", "coordinates": [ -122.325328492723841, 47.81102310886655 ] } },
{ "type": "Feature", "properties": { "OBJECTID": 22, "ZIP": 98054, "ZIPCODE": "98054", "COUNTY": "033", "ZIP_TYPE": "Former", "PREFERRED_CITY": "REDONDO", "FEATURE_SOURCE": "Placed Point", "COUNTY_NAME": "King County" }, "geometry": { "type": "Point", "coordinates": [ -122.322341058937226, 47.348920446541285 ] } },
{ "type": "Feature", "properties": { "OBJECTID": 23, "ZIP": 98061, "ZIPCODE": "98061", "COUNTY": "035", "ZIP_TYPE": "PO Box", "PREFERRED_CITY": "ROLLINGBAY", "FEATURE_SOURCE": "Placed Point", "COUNTY_NAME": "Kitsap County" }, "geometry": { "type": "Point", "coordinates": [ -122.510710011154274, 47.664450343506608 ] } },
{ "type": "Feature", "properties": { "OBJECTID": 24, "ZIP": 98073, "ZIPCODE": "98073", "COUNTY": "033", "ZIP_TYPE": "PO Box", "PREFERRED_CITY": "REDMOND", "FEATURE_SOURCE": "Placed Point", "COUNTY_NAME": "King County" }, "geometry": { "type": "Point", "coordinates": [ -122.094660730774137, 47.669800572467729 ] } },
{ "type": "Feature", "properties": { "OBJECTID": 25, "ZIP": 98082, "ZIPCODE": "98082", "COUNTY": "061", "ZIP_TYPE": "PO Box", "PREFERRED_CITY": "BOTHELL", "FEATURE_SOURCE": "Placed Point", "COUNTY_NAME": "Snohomish County" }, "geometry": { "type": "Point", "coordinates": [ -122.219347775181845, 47.853890574866433 ] } },
{ "type": "Feature", "properties": { "OBJECTID": 26, "ZIP": 98089, "ZIPCODE": "98089", "COUNTY": "033", "ZIP_TYPE": "PO Box", "PREFERRED_CITY": "KENT", "FEATURE_SOURCE": "Placed Point", "COUNTY_NAME": "King County" }, "geometry": { "type": "Point", "coordinates": [ -122.29439465159227, 47.391504360142989 ] } },
{ "type": "Feature", "properties": { "OBJECTID": 27, "ZIP": 98111, "ZIPCODE": "98111", "COUNTY": "033", "ZIP_TYPE": "PO Box", "PREFERRED_CITY": "SEATTLE", "FEATURE_SOURCE": "Placed Point", "COUNTY_NAME": "King County" }, "geometry": { "type": "Point", "coordinates": [ -122.336415740994454, 47.608716496662183 ] } },
{ "type": "Feature", "properties": { "OBJECTID": 28, "ZIP": 98113, "ZIPCODE": "98113", "COUNTY": "033", "ZIP_TYPE": "PO Box", "PREFERRED_CITY": "SEATTLE", "FEATURE_SOURCE": "Placed Point", "COUNTY_NAME": "King County" }, "geometry": { "type": "Point", "coordinates": [ -122.354884658080962, 47.689368564469689 ] } },
{ "type": "Feature", "properties": { "OBJECTID": 29, "ZIP": 98114, "ZIPCODE": "98114", "COUNTY": "033", "ZIP_TYPE": "PO Box", "PREFERRED_CITY": "SEATTLE", "FEATURE_SOURCE": "Placed Point", "COUNTY_NAME": "King County" }, "geometry": { "type": "Point", "coordinates": [ -122.326089706896326, 47.598626646844821 ] } },
{ "type": "Feature", "properties": { "OBJECTID": 30, "ZIP": 98127, "ZIPCODE": "98127", "COUNTY": "033", "ZIP_TYPE": "PO Box", "PREFERRED_CITY": "SEATTLE", "FEATURE_SOURCE": "Placed Point", "COUNTY_NAME": "King County" }, "geometry": { "type": "Point", "coordinates": [ -122.378395055870271, 47.670392008741103 ] } },
{ "type": "Feature", "properties": { "OBJECTID": 31, "ZIP": 98129, "ZIPCODE": "98129", "COUNTY": "033", "ZIP_TYPE": "Unique", "PREFERRED_CITY": "SEATTLE", "FEATURE_SOURCE": "Placed Point", "COUNTY_NAME": "King County" }, "geometry": { "type": "Point", "coordinates": [ -122.33691038376287, 47.616839189702077 ] } },
{ "type": "Feature", "properties": { "OBJECTID": 32, "ZIP": 98139, "ZIPCODE": "98139", "COUNTY": "033", "ZIP_TYPE": "PO Box", "PREFERRED_CITY": "SEATTLE", "FEATURE_SOURCE": "Placed Point", "COUNTY_NAME": "King County" }, "geometry": { "type": "Point", "coordinates": [ -122.398949836458158, 47.639400459342518 ] } },
{ "type": "Feature", "properties": { "OBJECTID": 33, "ZIP": 98174, "ZIPCODE": "98174", "COUNTY": "033", "ZIP_TYPE": "Standard", "PREFERRED_CITY": "SEATTLE", "FEATURE_SOURCE": "Placed Point", "COUNTY_NAME": "King County" }, "geometry": { "type": "Point", "coordinates": [ -122.335327813878209, 47.60458180859883 ] } },
{ "type": "Feature", "properties": { "OBJECTID": 34, "ZIP": 98194, "ZIPCODE": "98194", "COUNTY": "033", "ZIP_TYPE": "PO Box", "PREFERRED_CITY": "SEATTLE", "FEATURE_SOURCE": "Placed Point", "COUNTY_NAME": "King County" }, "geometry": { "type": "Point", "coordinates": [ -122.335149223727399, 47.599077576914986 ] } },
{ "type": "Feature", "properties": { "OBJECTID": 35, "ZIP": 98161, "ZIPCODE": "98161", "COUNTY": "033", "ZIP_TYPE": "Standard", "PREFERRED_CITY": "SEATTLE", "FEATURE_SOURCE": "Placed Point", "COUNTY_NAME": "King County" }, "geometry": { "type": "Point", "coordinates": [ -122.334694199880573, 47.607560102616176 ] } },
{ "type": "Feature", "properties": { "OBJECTID": 36, "ZIP": 98165, "ZIPCODE": "98165", "COUNTY": "033", "ZIP_TYPE": "PO Box", "PREFERRED_CITY": "SEATTLE", "FEATURE_SOURCE": "Placed Point", "COUNTY_NAME": "King County" }, "geometry": { "type": "Point", "coordinates": [ -122.295327049299857, 47.720938617211701 ] } },
{ "type": "Feature", "properties": { "OBJECTID": 37, "ZIP": 98170, "ZIPCODE": "98170", "COUNTY": "033", "ZIP_TYPE": "Unique", "PREFERRED_CITY": "SEATTLE", "FEATURE_SOURCE": "Placed Point", "COUNTY_NAME": "King County" }, "geometry": { "type": "Point", "coordinates": [ -122.336764813614437, 47.622280710767349 ] } },
{ "type": "Feature", "properties": { "OBJECTID": 38, "ZIP": 98189, "ZIPCODE": "98189", "COUNTY": "033", "ZIP_TYPE": "Unique", "PREFERRED_CITY": "SEATTLE", "FEATURE_SOURCE": "Placed Point", "COUNTY_NAME": "King County" }, "geometry": { "type": "Point", "coordinates": [ -122.250715824282096, 47.429961788894694 ] } },
{ "type": "Feature", "properties": { "OBJECTID": 39, "ZIP": 98293, "ZIPCODE": "98293", "COUNTY": "061", "ZIP_TYPE": "PO Box", "PREFERRED_CITY": "STARTUP", "FEATURE_SOURCE": "Placed Point", "COUNTY_NAME": "Snohomish County" }, "geometry": { "type": "Point", "coordinates": [ -121.742305459765149, 47.867293774891337 ] } },
{ "type": "Feature", "properties": { "OBJECTID": 40, "ZIP": 98353, "ZIPCODE": "98353", "COUNTY": "035", "ZIP_TYPE": "PO Box", "PREFERRED_CITY": "MANCHESTER", "FEATURE_SOURCE": "Placed Point", "COUNTY_NAME": "Kitsap County" }, "geometry": { "type": "Point", "coordinates": [ -122.544615678463629, 47.554745123403144 ] } },
{ "type": "Feature", "properties": { "OBJECTID": 41, "ZIP": 98384, "ZIPCODE": "98384", "COUNTY": "035", "ZIP_TYPE": "PO Box", "PREFERRED_CITY": "SOUTH COLBY", "FEATURE_SOURCE": "Placed Point", "COUNTY_NAME": "Kitsap County" }, "geometry": { "type": "Point", "coordinates": [ -122.523516120845173, 47.522155732873721 ] } },
{ "type": "Feature", "properties": { "OBJECTID": 42, "ZIP": 98378, "ZIPCODE": "98378", "COUNTY": "035", "ZIP_TYPE": "PO Box", "PREFERRED_CITY": "RETSIL", "FEATURE_SOURCE": "Placed Point", "COUNTY_NAME": "Kitsap County" }, "geometry": { "type": "Point", "coordinates": [ -122.615278397189783, 47.545552824889761 ] } },
{ "type": "Feature", "properties": { "OBJECTID": 43, "ZIP": 98393, "ZIPCODE": "98393", "COUNTY": "035", "ZIP_TYPE": "PO Box", "PREFERRED_CITY": "TRACYTON", "FEATURE_SOURCE": "Placed Point", "COUNTY_NAME": "Kitsap County" }, "geometry": { "type": "Point", "coordinates": [ -122.655761088031397, 47.61090667972956 ] } },
{ "type": "Feature", "properties": { "OBJECTID": 44, "ZIP": 98386, "ZIPCODE": "98386", "COUNTY": "035", "ZIP_TYPE": "PO Box", "PREFERRED_CITY": "SOUTHWORTH", "FEATURE_SOURCE": "Placed Point", "COUNTY_NAME": "Kitsap County" }, "geometry": { "type": "Point", "coordinates": [ -122.500949345354059, 47.512336859543716 ] } },
{ "type": "Feature", "properties": { "OBJECTID": 45, "ZIP": 98364, "ZIPCODE": "98364", "COUNTY": "035", "ZIP_TYPE": "PO Box", "PREFERRED_CITY": "PORT GAMBLE", "FEATURE_SOURCE": "Placed Point", "COUNTY_NAME": "Kitsap County" }, "geometry": { "type": "Point", "coordinates": [ -122.584242313809568, 47.855761890279616 ] } },
{ "type": "Feature", "properties": { "OBJECTID": 46, "ZIP": 98291, "ZIPCODE": "98291", "COUNTY": "061", "ZIP_TYPE": "PO Box", "PREFERRED_CITY": "SNOHOMISH", "FEATURE_SOURCE": "Placed Point", "COUNTY_NAME": "Snohomish County" }, "geometry": { "type": "Point", "coordinates": [ -122.09674121766561, 47.927296290070956 ] } },
{ "type": "Feature", "properties": { "OBJECTID": 47, "ZIP": 98206, "ZIPCODE": "98206", "COUNTY": "061", "ZIP_TYPE": "PO Box", "PREFERRED_CITY": "EVERETT", "FEATURE_SOURCE": "Placed Point", "COUNTY_NAME": "Snohomish County" }, "geometry": { "type": "Point", "coordinates": [ -122.210533091656075, 47.976135158857666 ] } },
{ "type": "Feature", "properties": { "OBJECTID": 48, "ZIP": 98259, "ZIPCODE": "98259", "COUNTY": "061", "ZIP_TYPE": "PO Box", "PREFERRED_CITY": "NORTH LAKEWOOD", "FEATURE_SOURCE": "Placed Point", "COUNTY_NAME": "Snohomish County" }, "geometry": { "type": "Point", "coordinates": [ -122.208369434260561, 48.151739903672159 ] } },
{ "type": "Feature", "properties": { "OBJECTID": 49, "ZIP": 98213, "ZIPCODE": "98213", "COUNTY": "061", "ZIP_TYPE": "PO Box", "PREFERRED_CITY": "EVERETT", "FEATURE_SOURCE": "Placed Point", "COUNTY_NAME": "Snohomish County" }, "geometry": { "type": "Point", "coordinates": [ -122.21053708254378, 47.975986497050684 ] } },
{ "type": "Feature", "properties": { "OBJECTID": 50, "ZIP": 98207, "ZIPCODE": "98207", "COUNTY": "061", "ZIP_TYPE": "Unique", "PREFERRED_CITY": "EVERETT", "FEATURE_SOURCE": "Placed Point", "COUNTY_NAME": "Snohomish County" }, "geometry": { "type": "Point", "coordinates": [ -122.21678375019151, 47.991162407443902 ] } },
{ "type": "Feature", "properties": { "OBJECTID": 51, "ZIP": 98287, "ZIPCODE": "98287", "COUNTY": "061", "ZIP_TYPE": "PO Box", "PREFERRED_CITY": "SILVANA", "FEATURE_SOURCE": "Placed Point", "COUNTY_NAME": "Snohomish County" }, "geometry": { "type": "Point", "coordinates": [ -122.252234970059618, 48.200753311222158 ] } },
{ "type": "Feature", "properties": { "OBJECTID": 52, "ZIP": 98048, "ZIPCODE": "98048", "COUNTY": "033", "ZIP_TYPE": "Former", "PREFERRED_CITY": "PALMER", "FEATURE_SOURCE": "Placed Point", "COUNTY_NAME": "King County" }, "geometry": { "type": "Point", "coordinates": [ -121.892367564861416, 47.31440804639913 ] } },
{ "type": "Feature", "properties": { "OBJECTID": 53, "ZIP": 98434, "ZIPCODE": "98434", "COUNTY": "053", "ZIP_TYPE": "Former", "PREFERRED_CITY": "NORTH FORT LEWIS", "FEATURE_SOURCE": "Placed Point", "COUNTY_NAME": "Pierce County" }, "geometry": { "type": "Point", "coordinates": [ -122.595865652843386, 47.120651057710077 ] } },
{ "type": "Feature", "properties": { "OBJECTID": 54, "ZIP": 98175, "ZIPCODE": "98175", "COUNTY": "033", "ZIP_TYPE": "PO Box", "PREFERRED_CITY": "SEATTLE", "FEATURE_SOURCE": "Placed Point", "COUNTY_NAME": "King County" }, "geometry": { "type": "Point", "coordinates": [ -122.319414898748164, 47.709928368706684 ] } },
{ "type": "Feature", "properties": { "OBJECTID": 55, "ZIP": 98205, "ZIPCODE": "98205", "COUNTY": "061", "ZIP_TYPE": "Former", "PREFERRED_CITY": "EVERETT", "FEATURE_SOURCE": "Placed Point", "COUNTY_NAME": "Snohomish County" }, "geometry": { "type": "Point", "coordinates": [ -122.137360407565154, 47.981481718249427 ] } },
{ "type": "Feature", "properties": { "OBJECTID": 56, "ZIP": 98344, "ZIPCODE": "98344", "COUNTY": "053", "ZIP_TYPE": "PO Box", "PREFERRED_CITY": "KAPOWSIN", "FEATURE_SOURCE": "Placed Point", "COUNTY_NAME": "Pierce County" }, "geometry": { "type": "Point", "coordinates": [ -122.23662551860852, 46.984206844442141 ] } },
{ "type": "Feature", "properties": { "OBJECTID": 57, "ZIP": 98348, "ZIPCODE": "98348", "COUNTY": "053", "ZIP_TYPE": "PO Box", "PREFERRED_CITY": "LA GRANDE", "FEATURE_SOURCE": "Placed Point", "COUNTY_NAME": "Pierce County" }, "geometry": { "type": "Point", "coordinates": [ -122.318710450877177, 46.833892961131831 ] } },
{ "type": "Feature", "properties": { "OBJECTID": 58, "ZIP": 98395, "ZIPCODE": "98395", "COUNTY": "053", "ZIP_TYPE": "PO Box", "PREFERRED_CITY": "WAUNA", "FEATURE_SOURCE": "Placed Point", "COUNTY_NAME": "Pierce County" }, "geometry": { "type": "Point", "coordinates": [ -122.660133475306608, 47.388246560343276 ] } },
{ "type": "Feature", "properties": { "OBJECTID": 59, "ZIP": 98397, "ZIPCODE": "98397", "COUNTY": "053", "ZIP_TYPE": "PO Box", "PREFERRED_CITY": "LONGMIRE", "FEATURE_SOURCE": "Placed Point", "COUNTY_NAME": "Pierce County" }, "geometry": { "type": "Point", "coordinates": [ -121.817119531102009, 46.749006586430419 ] } },
{ "type": "Feature", "properties": { "OBJECTID": 60, "ZIP": 98398, "ZIPCODE": "98398", "COUNTY": "053", "ZIP_TYPE": "PO Box", "PREFERRED_CITY": "PARADISE INN", "FEATURE_SOURCE": "Placed Point", "COUNTY_NAME": "Pierce County" }, "geometry": { "type": "Point", "coordinates": [ -121.734131959414881, 46.786722699658782 ] } },
{ "type": "Feature", "properties": { "OBJECTID": 61, "ZIP": 98401, "ZIPCODE": "98401", "COUNTY": "053", "ZIP_TYPE": "PO Box", "PREFERRED_CITY": "TACOMA", "FEATURE_SOURCE": "Placed Point", "COUNTY_NAME": "Pierce County" }, "geometry": { "type": "Point", "coordinates": [ -122.437433336045004, 47.252979591734487 ] } },
{ "type": "Feature", "properties": { "OBJECTID": 62, "ZIP": 98411, "ZIPCODE": "98411", "COUNTY": "053", "ZIP_TYPE": "PO Box", "PREFERRED_CITY": "TACOMA", "FEATURE_SOURCE": "Placed Point", "COUNTY_NAME": "Pierce County" }, "geometry": { "type": "Point", "coordinates": [ -122.47255855136234, 47.219966625954712 ] } },
{ "type": "Feature", "properties": { "OBJECTID": 63, "ZIP": 98413, "ZIPCODE": "98413", "COUNTY": "053", "ZIP_TYPE": "PO Box", "PREFERRED_CITY": "TACOMA", "FEATURE_SOURCE": "Placed Point", "COUNTY_NAME": "Pierce County" }, "geometry": { "type": "Point", "coordinates": [ -122.472768079998602, 47.219963584607981 ] } },
{ "type": "Feature", "properties": { "OBJECTID": 64, "ZIP": 98415, "ZIPCODE": "98415", "COUNTY": "053", "ZIP_TYPE": "PO Box", "PREFERRED_CITY": "TACOMA", "FEATURE_SOURCE": "Placed Point", "COUNTY_NAME": "Pierce County" }, "geometry": { "type": "Point", "coordinates": [ -122.451727195043773, 47.250175372589418 ] } },
{ "type": "Feature", "properties": { "OBJECTID": 65, "ZIP": 98417, "ZIPCODE": "98417", "COUNTY": "053", "ZIP_TYPE": "PO Box", "PREFERRED_CITY": "TACOMA", "FEATURE_SOURCE": "Placed Point", "COUNTY_NAME": "Pierce County" }, "geometry": { "type": "Point", "coordinates": [ -122.487612581080256, 47.272215548348633 ] } },
{ "type": "Feature", "properties": { "OBJECTID": 66, "ZIP": 98419, "ZIPCODE": "98419", "COUNTY": "053", "ZIP_TYPE": "PO Box", "PREFERRED_CITY": "TACOMA", "FEATURE_SOURCE": "Placed Point", "COUNTY_NAME": "Pierce County" }, "geometry": { "type": "Point", "coordinates": [ -122.4403296026844, 47.224486041392147 ] } },
{ "type": "Feature", "properties": { "OBJECTID": 67, "ZIP": 98448, "ZIPCODE": "98448", "COUNTY": "053", "ZIP_TYPE": "PO Box", "PREFERRED_CITY": "TACOMA", "FEATURE_SOURCE": "Placed Point", "COUNTY_NAME": "Pierce County" }, "geometry": { "type": "Point", "coordinates": [ -122.436568250025246, 47.145892180692407 ] } },
{ "type": "Feature", "properties": { "OBJECTID": 68, "ZIP": 98464, "ZIPCODE": "98464", "COUNTY": "053", "ZIP_TYPE": "PO Box", "PREFERRED_CITY": "TACOMA", "FEATURE_SOURCE": "Placed Point", "COUNTY_NAME": "Pierce County" }, "geometry": { "type": "Point", "coordinates": [ -122.52871795560506, 47.236161686475192 ] } },
{ "type": "Feature", "properties": { "OBJECTID": 69, "ZIP": 98496, "ZIPCODE": "98496", "COUNTY": "053", "ZIP_TYPE": "PO Box", "PREFERRED_CITY": "LAKEWOOD", "FEATURE_SOURCE": "Placed Point", "COUNTY_NAME": "Pierce County" }, "geometry": { "type": "Point", "coordinates": [ -122.509626874516897, 47.168261929314596 ] } },
{ "type": "Feature", "properties": { "OBJECTID": 70, "ZIP": 98497, "ZIPCODE": "98497", "COUNTY": "053", "ZIP_TYPE": "PO Box", "PREFERRED_CITY": "LAKEWOOD", "FEATURE_SOURCE": "Placed Point", "COUNTY_NAME": "Pierce County" }, "geometry": { "type": "Point", "coordinates": [ -122.547961126790383, 47.180770972266494 ] } },
{ "type": "Feature", "properties": { "OBJECTID": 71, "ZIP": 98492, "ZIPCODE": "98492", "COUNTY": "053", "ZIP_TYPE": "Former", "PREFERRED_CITY": "TILLICUM", "FEATURE_SOURCE": "Placed Point", "COUNTY_NAME": "Pierce County" }, "geometry": { "type": "Point", "coordinates": [ -122.549408167843097, 47.123100583003342 ] } },
{ "type": "Feature", "properties": { "OBJECTID": 72, "ZIP": 98278, "ZIPCODE": "98278", "COUNTY": "029", "ZIP_TYPE": "Unique", "PREFERRED_CITY": "OAK HARBOR", "FEATURE_SOURCE": "Placed Point", "COUNTY_NAME": "Island County" }, "geometry": { "type": "Point", "coordinates": [ -122.669160344941417, 48.341715756917111 ] } },
{ "type": "Feature", "properties": { "OBJECTID": 73, "ZIP": 98504, "ZIPCODE": "98504", "COUNTY": "067", "ZIP_TYPE": "Unique", "PREFERRED_CITY": "OLYMPIA", "FEATURE_SOURCE": "Placed Point", "COUNTY_NAME": "Thurston County" }, "geometry": { "type": "Point", "coordinates": [ -122.900804209030895, 47.036475004170931 ] } },
{ "type": "Feature", "properties": { "OBJECTID": 74, "ZIP": 98505, "ZIPCODE": "98505", "COUNTY": "067", "ZIP_TYPE": "Unique", "PREFERRED_CITY": "OLYMPIA", "FEATURE_SOURCE": "Placed Point", "COUNTY_NAME": "Thurston County" }, "geometry": { "type": "Point", "coordinates": [ -122.976548304547549, 47.072883065026588 ] } },
{ "type": "Feature", "properties": { "OBJECTID": 75, "ZIP": 98507, "ZIPCODE": "98507", "COUNTY": "067", "ZIP_TYPE": "PO Box", "PREFERRED_CITY": "OLYMPIA", "FEATURE_SOURCE": "Placed Point", "COUNTY_NAME": "Thurston County" }, "geometry": { "type": "Point", "coordinates": [ -122.895522213234401, 47.041095997573869 ] } },
{ "type": "Feature", "properties": { "OBJECTID": 76, "ZIP": 98508, "ZIPCODE": "98508", "COUNTY": "067", "ZIP_TYPE": "PO Box", "PREFERRED_CITY": "OLYMPIA", "FEATURE_SOURCE": "Placed Point", "COUNTY_NAME": "Thurston County" }, "geometry": { "type": "Point", "coordinates": [ -122.93960784871706, 47.04464680301291 ] } },
{ "type": "Feature", "properties": { "OBJECTID": 77, "ZIP": 98509, "ZIPCODE": "98509", "COUNTY": "067", "ZIP_TYPE": "PO Box", "PREFERRED_CITY": "LACEY", "FEATURE_SOURCE": "Placed Point", "COUNTY_NAME": "Thurston County" }, "geometry": { "type": "Point", "coordinates": [ -122.807117931194753, 47.035312019994315 ] } },
{ "type": "Feature", "properties": { "OBJECTID": 78, "ZIP": 98511, "ZIPCODE": "98511", "COUNTY": "067", "ZIP_TYPE": "PO Box", "PREFERRED_CITY": "TUMWATER", "FEATURE_SOURCE": "Placed Point", "COUNTY_NAME": "Thurston County" }, "geometry": { "type": "Point", "coordinates": [ -122.90530689594712, 46.985789789935524 ] } },
{ "type": "Feature", "properties": { "OBJECTID": 79, "ZIP": 98540, "ZIPCODE": "98540", "COUNTY": "067", "ZIP_TYPE": "PO Box", "PREFERRED_CITY": "EAST OLYMPIA", "FEATURE_SOURCE": "Placed Point", "COUNTY_NAME": "Thurston County" }, "geometry": { "type": "Point", "coordinates": [ -122.837050307709106, 46.966755493792078 ] } },
{ "type": "Feature", "properties": { "OBJECTID": 80, "ZIP": 98235, "ZIPCODE": "98235", "COUNTY": "057", "ZIP_TYPE": "PO Box", "PREFERRED_CITY": "CLEARLAKE", "FEATURE_SOURCE": "Placed Point", "COUNTY_NAME": "Skagit County" }, "geometry": { "type": "Point", "coordinates": [ -122.233976145464041, 48.462258529825753 ] } },
{ "type": "Feature", "properties": { "OBJECTID": 81, "ZIP": 98238, "ZIPCODE": "98238", "COUNTY": "057", "ZIP_TYPE": "PO Box", "PREFERRED_CITY": "CONWAY", "FEATURE_SOURCE": "Placed Point", "COUNTY_NAME": "Skagit County" }, "geometry": { "type": "Point", "coordinates": [ -122.343118305108376, 48.340247635985257 ] } },
{ "type": "Feature", "properties": { "OBJECTID": 82, "ZIP": 98322, "ZIPCODE": "98322", "COUNTY": "053", "ZIP_TYPE": "PO Box", "PREFERRED_CITY": "BURLEY", "FEATURE_SOURCE": "Placed Point", "COUNTY_NAME": "Pierce County" }, "geometry": { "type": "Point", "coordinates": [ -122.629314596028451, 47.414018440952781 ] } },
{ "type": "Feature", "properties": { "OBJECTID": 83, "ZIP": 98001, "ZIPCODE": "98001", "COUNTY": "033", "ZIP_TYPE": "Standard", "PREFERRED_CITY": "AUBURN", "FEATURE_SOURCE": "Polygon Centroid", "COUNTY_NAME": "King County" }, "geometry": { "type": "Point", "coordinates": [ -122.265142655193472, 47.309477164347953 ] } },
{ "type": "Feature", "properties": { "OBJECTID": 84, "ZIP": 98002, "ZIPCODE": "98002", "COUNTY": "033", "ZIP_TYPE": "Standard", "PREFERRED_CITY": "AUBURN", "FEATURE_SOURCE": "Polygon Centroid", "COUNTY_NAME": "King County" }, "geometry": { "type": "Point", "coordinates": [ -122.215767764270765, 47.308316021259905 ] } },
{ "type": "Feature", "properties": { "OBJECTID": 85, "ZIP": 98003, "ZIPCODE": "98003", "COUNTY": "033", "ZIP_TYPE": "Standard", "PREFERRED_CITY": "FEDERAL WAY", "FEATURE_SOURCE": "Polygon Centroid", "COUNTY_NAME": "King County" }, "geometry": { "type": "Point", "coordinates": [ -122.314585345420738, 47.306690469053549 ] } },
{ "type": "Feature", "properties": { "OBJECTID": 86, "ZIP": 98004, "ZIPCODE": "98004", "COUNTY": "033", "ZIP_TYPE": "Standard", "PREFERRED_CITY": "BELLEVUE", "FEATURE_SOURCE": "Polygon Centroid", "COUNTY_NAME": "King County" }, "geometry": { "type": "Point", "coordinates": [ -122.203192121697853, 47.619121371621354 ] } },
{ "type": "Feature", "properties": { "OBJECTID": 87, "ZIP": 98005, "ZIPCODE": "98005", "COUNTY": "033", "ZIP_TYPE": "Standard", "PREFERRED_CITY": "BELLEVUE", "FEATURE_SOURCE": "Polygon Centroid", "COUNTY_NAME": "King County" }, "geometry": { "type": "Point", "coordinates": [ -122.167513768626279, 47.616781709141392 ] } },
{ "type": "Feature", "properties": { "OBJECTID": 88, "ZIP": 98006, "ZIPCODE": "98006", "COUNTY": "033", "ZIP_TYPE": "Standard", "PREFERRED_CITY": "BELLEVUE", "FEATURE_SOURCE": "Polygon Centroid", "COUNTY_NAME": "King County" }, "geometry": { "type": "Point", "coordinates": [ -122.147775439827015, 47.560613423654544 ] } },
{ "type": "Feature", "properties": { "OBJECTID": 89, "ZIP": 98007, "ZIPCODE": "98007", "COUNTY": "033", "ZIP_TYPE": "Standard", "PREFERRED_CITY": "BELLEVUE", "FEATURE_SOURCE": "Polygon Centroid", "COUNTY_NAME": "King County" }, "geometry": { "type": "Point", "coordinates": [ -122.14378411294328, 47.617308976903658 ] } },
{ "type": "Feature", "properties": { "OBJECTID": 90, "ZIP": 98008, "ZIPCODE": "98008", "COUNTY": "033", "ZIP_TYPE": "Standard", "PREFERRED_CITY": "BELLEVUE", "FEATURE_SOURCE": "Polygon Centroid", "COUNTY_NAME": "King County" }, "geometry": { "type": "Point", "coordinates": [ -122.117285606291972, 47.607512181212321 ] } },
{ "type": "Feature", "properties": { "OBJECTID": 91, "ZIP": 98010, "ZIPCODE": "98010", "COUNTY": "033", "ZIP_TYPE": "Standard", "PREFERRED_CITY": "BLACK DIAMOND", "FEATURE_SOURCE": "Polygon Centroid", "COUNTY_NAME": "King County" }, "geometry": { "type": "Point", "coordinates": [ -121.997788751905333, 47.315925940690335 ] } },
{ "type": "Feature", "properties": { "OBJECTID": 92, "ZIP": 98011, "ZIPCODE": "98011", "COUNTY": "033", "ZIP_TYPE": "Standard", "PREFERRED_CITY": "BOTHELL", "FEATURE_SOURCE": "Polygon Centroid", "COUNTY_NAME": "King County" }, "geometry": { "type": "Point", "coordinates": [ -122.198617725006358, 47.757248500268332 ] } },
{ "type": "Feature", "properties": { "OBJECTID": 93, "ZIP": 98011, "ZIPCODE": "98011", "COUNTY": "061", "ZIP_TYPE": "Standard", "PREFERRED_CITY": "BOTHELL", "FEATURE_SOURCE": "Polygon Centroid", "COUNTY_NAME": "Snohomish County" }, "geometry": { "type": "Point", "coordinates": [ -122.222061855762234, 47.776917975050488 ] } },
{ "type": "Feature", "properties": { "OBJECTID": 94, "ZIP": 98012, "ZIPCODE": "98012", "COUNTY": "061", "ZIP_TYPE": "Standard", "PREFERRED_CITY": "BOTHELL", "FEATURE_SOURCE": "Polygon Centroid", "COUNTY_NAME": "Snohomish County" }, "geometry": { "type": "Point", "coordinates": [ -122.19851810601206, 47.841472387716664 ] } },
{ "type": "Feature", "properties": { "OBJECTID": 95, "ZIP": 98014, "ZIPCODE": "98014", "COUNTY": "033", "ZIP_TYPE": "Standard", "PREFERRED_CITY": "CARNATION", "FEATURE_SOURCE": "Polygon Centroid", "COUNTY_NAME": "King County" }, "geometry": { "type": "Point", "coordinates": [ -121.882593908475187, 47.658230530213281 ] } },
{ "type": "Feature", "properties": { "OBJECTID": 96, "ZIP": 98019, "ZIPCODE": "98019", "COUNTY": "033", "ZIP_TYPE": "Standard", "PREFERRED_CITY": "DUVALL", "FEATURE_SOURCE": "Polygon Centroid", "COUNTY_NAME": "King County" }, "geometry": { "type": "Point", "coordinates": [ -121.787737844619329, 47.734728856830571 ] } },
{ "type": "Feature", "properties": { "OBJECTID": 97, "ZIP": 98019, "ZIPCODE": "98019", "COUNTY": "061", "ZIP_TYPE": "Standard", "PREFERRED_CITY": "DUVALL", "FEATURE_SOURCE": "Polygon Centroid", "COUNTY_NAME": "Snohomish County" }, "geometry": { "type": "Point", "coordinates": [ -121.935281880643984, 47.778650511936299 ] } },
{ "type": "Feature", "properties": { "OBJECTID": 98, "ZIP": 98020, "ZIPCODE": "98020", "COUNTY": "061", "ZIP_TYPE": "Standard", "PREFERRED_CITY": "EDMONDS", "FEATURE_SOURCE": "Polygon Centroid", "COUNTY_NAME": "Snohomish County" }, "geometry": { "type": "Point", "coordinates": [ -122.372124466056007, 47.800396497039763 ] } },
{ "type": "Feature", "properties": { "OBJECTID": 99, "ZIP": 98021, "ZIPCODE": "98021", "COUNTY": "061", "ZIP_TYPE": "Standard", "PREFERRED_CITY": "BOTHELL", "FEATURE_SOURCE": "Polygon Centroid", "COUNTY_NAME": "Snohomish County" }, "geometry": { "type": "Point", "coordinates": [ -122.208730034107219, 47.792246099212278 ] } },
{ "type": "Feature", "properties": { "OBJECTID": 100, "ZIP": 98022, "ZIPCODE": "98022", "COUNTY": "033", "ZIP_TYPE": "Standard", "PREFERRED_CITY": "ENUMCLAW", "FEATURE_SOURCE": "Polygon Centroid", "COUNTY_NAME": "King County" }, "geometry": { "type": "Point", "coordinates": [ -121.70838126034954, 47.24621570859167 ] } },
{ "type": "Feature", "properties": { "OBJECTID": 101, "ZIP": 98022, "ZIPCODE": "98022", "COUNTY": "053", "ZIP_TYPE": "Standard", "PREFERRED_CITY": "ENUMCLAW", "FEATURE_SOURCE": "Polygon Centroid", "COUNTY_NAME": "Pierce County" }, "geometry": { "type": "Point", "coordinates": [ -121.644702216374611, 47.037527727637752 ] } },
{ "type": "Feature", "properties": { "OBJECTID": 102, "ZIP": 98023, "ZIPCODE": "98023", "COUNTY": "033", "ZIP_TYPE": "Standard", "PREFERRED_CITY": "FEDERAL WAY", "FEATURE_SOURCE": "Polygon Centroid", "COUNTY_NAME": "King County" }, "geometry": { "type": "Point", "coordinates": [ -122.362248724804886, 47.30866966999546 ] } },
{ "type": "Feature", "properties": { "OBJECTID": 103, "ZIP": 98024, "ZIPCODE": "98024", "COUNTY": "033", "ZIP_TYPE": "Standard", "PREFERRED_CITY": "FALL CITY", "FEATURE_SOURCE": "Polygon Centroid", "COUNTY_NAME": "King County" }, "geometry": { "type": "Point", "coordinates": [ -121.779480503057684, 47.658297007562702 ] } },
{ "type": "Feature", "properties": { "OBJECTID": 104, "ZIP": 98026, "ZIPCODE": "98026", "COUNTY": "061", "ZIP_TYPE": "Standard", "PREFERRED_CITY": "EDMONDS", "FEATURE_SOURCE": "Polygon Centroid", "COUNTY_NAME": "Snohomish County" }, "geometry": { "type": "Point", "coordinates": [ -122.308132413494064, 47.864484347895214 ] } },
{ "type": "Feature", "properties": { "OBJECTID": 105, "ZIP": 98027, "ZIPCODE": "98027", "COUNTY": "033", "ZIP_TYPE": "Standard", "PREFERRED_CITY": "ISSAQUAH", "FEATURE_SOURCE": "Polygon Centroid", "COUNTY_NAME": "King County" }, "geometry": { "type": "Point", "coordinates": [ -121.998115634955596, 47.501976561502268 ] } },
{ "type": "Feature", "properties": { "OBJECTID": 106, "ZIP": 98028, "ZIPCODE": "98028", "COUNTY": "033", "ZIP_TYPE": "Standard", "PREFERRED_CITY": "KENMORE", "FEATURE_SOURCE": "Polygon Centroid", "COUNTY_NAME": "King County" }, "geometry": { "type": "Point", "coordinates": [ -122.245810403532317, 47.75304356487576 ] } },
{ "type": "Feature", "properties": { "OBJECTID": 107, "ZIP": 98029, "ZIPCODE": "98029", "COUNTY": "033", "ZIP_TYPE": "Standard", "PREFERRED_CITY": "ISSAQUAH", "FEATURE_SOURCE": "Polygon Centroid", "COUNTY_NAME": "King County" }, "geometry": { "type": "Point", "coordinates": [ -122.007497285453908, 47.558254990156421 ] } },
{ "type": "Feature", "properties": { "OBJECTID": 108, "ZIP": 98030, "ZIPCODE": "98030", "COUNTY": "033", "ZIP_TYPE": "Standard", "PREFERRED_CITY": "KENT", "FEATURE_SOURCE": "Polygon Centroid", "COUNTY_NAME": "King County" }, "geometry": { "type": "Point", "coordinates": [ -122.196998479554225, 47.368340585131001 ] } },
{ "type": "Feature", "properties": { "OBJECTID": 109, "ZIP": 98031, "ZIPCODE": "98031", "COUNTY": "033", "ZIP_TYPE": "Standard", "PREFERRED_CITY": "KENT", "FEATURE_SOURCE": "Polygon Centroid", "COUNTY_NAME": "King County" }, "geometry": { "type": "Point", "coordinates": [ -122.196116470645578, 47.406942300070178 ] } },
{ "type": "Feature", "properties": { "OBJECTID": 110, "ZIP": 98032, "ZIPCODE": "98032", "COUNTY": "033", "ZIP_TYPE": "Standard", "PREFERRED_CITY": "KENT", "FEATURE_SOURCE": "Polygon Centroid", "COUNTY_NAME": "King County" }, "geometry": { "type": "Point", "coordinates": [ -122.259202996456182, 47.391760637886101 ] } },
{ "type": "Feature", "properties": { "OBJECTID": 111, "ZIP": 98033, "ZIPCODE": "98033", "COUNTY": "033", "ZIP_TYPE": "Standard", "PREFERRED_CITY": "KIRKLAND", "FEATURE_SOURCE": "Polygon Centroid", "COUNTY_NAME": "King County" }, "geometry": { "type": "Point", "coordinates": [ -122.186680613815383, 47.675844575330842 ] } },
{ "type": "Feature", "properties": { "OBJECTID": 112, "ZIP": 98034, "ZIPCODE": "98034", "COUNTY": "033", "ZIP_TYPE": "Standard", "PREFERRED_CITY": "KIRKLAND", "FEATURE_SOURCE": "Polygon Centroid", "COUNTY_NAME": "King County" }, "geometry": { "type": "Point", "coordinates": [ -122.205253529358245, 47.718362833537817 ] } },
{ "type": "Feature", "properties": { "OBJECTID": 113, "ZIP": 98036, "ZIPCODE": "98036", "COUNTY": "061", "ZIP_TYPE": "Standard", "PREFERRED_CITY": "LYNNWOOD", "FEATURE_SOURCE": "Polygon Centroid", "COUNTY_NAME": "Snohomish County" }, "geometry": { "type": "Point", "coordinates": [ -122.311376113077515, 47.817782724862347 ] } },
{ "type": "Feature", "properties": { "OBJECTID": 114, "ZIP": 98037, "ZIPCODE": "98037", "COUNTY": "061", "ZIP_TYPE": "Standard", "PREFERRED_CITY": "LYNNWOOD", "FEATURE_SOURCE": "Polygon Centroid", "COUNTY_NAME": "Snohomish County" }, "geometry": { "type": "Point", "coordinates": [ -122.285458193192397, 47.839091541754712 ] } },
{ "type": "Feature", "properties": { "OBJECTID": 115, "ZIP": 98038, "ZIPCODE": "98038", "COUNTY": "033", "ZIP_TYPE": "Standard", "PREFERRED_CITY": "MAPLE VALLEY", "FEATURE_SOURCE": "Polygon Centroid", "COUNTY_NAME": "King County" }, "geometry": { "type": "Point", "coordinates": [ -121.888472726714113, 47.423325158006257 ] } },
{ "type": "Feature", "properties": { "OBJECTID": 116, "ZIP": 98039, "ZIPCODE": "98039", "COUNTY": "033", "ZIP_TYPE": "Standard", "PREFERRED_CITY": "MEDINA", "FEATURE_SOURCE": "Polygon Centroid", "COUNTY_NAME": "King County" }, "geometry": { "type": "Point", "coordinates": [ -122.233723633791442, 47.625552662449962 ] } },
{ "type": "Feature", "properties": { "OBJECTID": 117, "ZIP": 98040, "ZIPCODE": "98040", "COUNTY": "033", "ZIP_TYPE": "Standard", "PREFERRED_CITY": "MERCER ISLAND", "FEATURE_SOURCE": "Polygon Centroid", "COUNTY_NAME": "King County" }, "geometry": { "type": "Point", "coordinates": [ -122.226559992475131, 47.562588368507562 ] } },
{ "type": "Feature", "properties": { "OBJECTID": 118, "ZIP": 98042, "ZIPCODE": "98042", "COUNTY": "033", "ZIP_TYPE": "Standard", "PREFERRED_CITY": "KENT", "FEATURE_SOURCE": "Polygon Centroid", "COUNTY_NAME": "King County" }, "geometry": { "type": "Point", "coordinates": [ -122.115055821579304, 47.362715796548308 ] } },
{ "type": "Feature", "properties": { "OBJECTID": 119, "ZIP": 98043, "ZIPCODE": "98043", "COUNTY": "061", "ZIP_TYPE": "Standard", "PREFERRED_CITY": "MOUNTLAKE TERRACE", "FEATURE_SOURCE": "Polygon Centroid", "COUNTY_NAME": "Snohomish County" }, "geometry": { "type": "Point", "coordinates": [ -122.307442829405574, 47.792024999473234 ] } },
{ "type": "Feature", "properties": { "OBJECTID": 120, "ZIP": 98045, "ZIPCODE": "98045", "COUNTY": "033", "ZIP_TYPE": "Standard", "PREFERRED_CITY": "NORTH BEND", "FEATURE_SOURCE": "Polygon Centroid", "COUNTY_NAME": "King County" }, "geometry": { "type": "Point", "coordinates": [ -121.593266812138708, 47.437046760280474 ] } },
{ "type": "Feature", "properties": { "OBJECTID": 121, "ZIP": 98047, "ZIPCODE": "98047", "COUNTY": "033", "ZIP_TYPE": "Standard", "PREFERRED_CITY": "PACIFIC", "FEATURE_SOURCE": "Polygon Centroid", "COUNTY_NAME": "King County" }, "geometry": { "type": "Point", "coordinates": [ -122.23941122485418, 47.263883245476556 ] } },
{ "type": "Feature", "properties": { "OBJECTID": 122, "ZIP": 98047, "ZIPCODE": "98047", "COUNTY": "053", "ZIP_TYPE": "Standard", "PREFERRED_CITY": "PACIFIC", "FEATURE_SOURCE": "Polygon Centroid", "COUNTY_NAME": "Pierce County" }, "geometry": { "type": "Point", "coordinates": [ -122.252144332850392, 47.250927876435235 ] } },
{ "type": "Feature", "properties": { "OBJECTID": 123, "ZIP": 98050, "ZIPCODE": "98050", "COUNTY": "033", "ZIP_TYPE": "PO Box", "PREFERRED_CITY": "PRESTON", "FEATURE_SOURCE": "Polygon Centroid", "COUNTY_NAME": "King County" }, "geometry": { "type": "Point", "coordinates": [ -121.935827502135467, 47.550234917774354 ] } },
{ "type": "Feature", "properties": { "OBJECTID": 124, "ZIP": 98051, "ZIPCODE": "98051", "COUNTY": "033", "ZIP_TYPE": "Standard", "PREFERRED_CITY": "RAVENSDALE", "FEATURE_SOURCE": "Polygon Centroid", "COUNTY_NAME": "King County" }, "geometry": { "type": "Point", "coordinates": [ -121.90835211279331, 47.339150167369034 ] } },
{ "type": "Feature", "properties": { "OBJECTID": 125, "ZIP": 98052, "ZIPCODE": "98052", "COUNTY": "033", "ZIP_TYPE": "Standard", "PREFERRED_CITY": "REDMOND", "FEATURE_SOURCE": "Polygon Centroid", "COUNTY_NAME": "King County" }, "geometry": { "type": "Point", "coordinates": [ -122.122123467674569, 47.682909306810572 ] } },
{ "type": "Feature", "properties": { "OBJECTID": 126, "ZIP": 98053, "ZIPCODE": "98053", "COUNTY": "033", "ZIP_TYPE": "Standard", "PREFERRED_CITY": "REDMOND", "FEATURE_SOURCE": "Polygon Centroid", "COUNTY_NAME": "King County" }, "geometry": { "type": "Point", "coordinates": [ -122.021153930552785, 47.667335286130331 ] } },
{ "type": "Feature", "properties": { "OBJECTID": 127, "ZIP": 98055, "ZIPCODE": "98055", "COUNTY": "033", "ZIP_TYPE": "Standard", "PREFERRED_CITY": "RENTON", "FEATURE_SOURCE": "Polygon Centroid", "COUNTY_NAME": "King County" }, "geometry": { "type": "Point", "coordinates": [ -122.202293734084805, 47.447914413474521 ] } },
{ "type": "Feature", "properties": { "OBJECTID": 128, "ZIP": 98056, "ZIPCODE": "98056", "COUNTY": "033", "ZIP_TYPE": "Standard", "PREFERRED_CITY": "RENTON", "FEATURE_SOURCE": "Polygon Centroid", "COUNTY_NAME": "King County" }, "geometry": { "type": "Point", "coordinates": [ -122.183737736658728, 47.512331758232023 ] } },
{ "type": "Feature", "properties": { "OBJECTID": 129, "ZIP": 98057, "ZIPCODE": "98057", "COUNTY": "033", "ZIP_TYPE": "Standard", "PREFERRED_CITY": "RENTON", "FEATURE_SOURCE": "Polygon Centroid", "COUNTY_NAME": "King County" }, "geometry": { "type": "Point", "coordinates": [ -122.219981291343217, 47.472793795727327 ] } },
{ "type": "Feature", "properties": { "OBJECTID": 130, "ZIP": 98058, "ZIPCODE": "98058", "COUNTY": "033", "ZIP_TYPE": "Standard", "PREFERRED_CITY": "RENTON", "FEATURE_SOURCE": "Polygon Centroid", "COUNTY_NAME": "King County" }, "geometry": { "type": "Point", "coordinates": [ -122.124083683850657, 47.439705658152711 ] } },
{ "type": "Feature", "properties": { "OBJECTID": 131, "ZIP": 98059, "ZIPCODE": "98059", "COUNTY": "033", "ZIP_TYPE": "Standard", "PREFERRED_CITY": "RENTON", "FEATURE_SOURCE": "Polygon Centroid", "COUNTY_NAME": "King County" }, "geometry": { "type": "Point", "coordinates": [ -122.125501559567681, 47.498948694914098 ] } },
{ "type": "Feature", "properties": { "OBJECTID": 132, "ZIP": 98065, "ZIPCODE": "98065", "COUNTY": "033", "ZIP_TYPE": "Standard", "PREFERRED_CITY": "SNOQUALMIE", "FEATURE_SOURCE": "Polygon Centroid", "COUNTY_NAME": "King County" }, "geometry": { "type": "Point", "coordinates": [ -121.766589419206952, 47.549652883485159 ] } },
{ "type": "Feature", "properties": { "OBJECTID": 133, "ZIP": 98068, "ZIPCODE": "98068", "COUNTY": "033", "ZIP_TYPE": "PO Box", "PREFERRED_CITY": "SNOQUALMIE PASS", "FEATURE_SOURCE": "Polygon Centroid", "COUNTY_NAME": "King County" }, "geometry": { "type": "Point", "coordinates": [ -121.416593654308258, 47.436705066407683 ] } },
{ "type": "Feature", "properties": { "OBJECTID": 134, "ZIP": 98068, "ZIPCODE": "98068", "COUNTY": "037", "ZIP_TYPE": "PO Box", "PREFERRED_CITY": "SNOQUALMIE PASS", "FEATURE_SOURCE": "Polygon Centroid", "COUNTY_NAME": "Kittitas County" }, "geometry": { "type": "Point", "coordinates": [ -121.346216147820286, 47.406870910927992 ] } },
{ "type": "Feature", "properties": { "OBJECTID": 135, "ZIP": 98070, "ZIPCODE": "98070", "COUNTY": "033", "ZIP_TYPE": "Standard", "PREFERRED_CITY": "VASHON", "FEATURE_SOURCE": "Polygon Centroid", "COUNTY_NAME": "King County" }, "geometry": { "type": "Point", "coordinates": [ -122.491215406169388, 47.416832279424092 ] } },
{ "type": "Feature", "properties": { "OBJECTID": 136, "ZIP": 98072, "ZIPCODE": "98072", "COUNTY": "033", "ZIP_TYPE": "Standard", "PREFERRED_CITY": "WOODINVILLE", "FEATURE_SOURCE": "Polygon Centroid", "COUNTY_NAME": "King County" }, "geometry": { "type": "Point", "coordinates": [ -122.128052178341605, 47.749526642915811 ] } },
{ "type": "Feature", "properties": { "OBJECTID": 137, "ZIP": 98072, "ZIPCODE": "98072", "COUNTY": "061", "ZIP_TYPE": "Standard", "PREFERRED_CITY": "WOODINVILLE", "FEATURE_SOURCE": "Polygon Centroid", "COUNTY_NAME": "Snohomish County" }, "geometry": { "type": "Point", "coordinates": [ -122.140483081950379, 47.792616093766881 ] } },
{ "type": "Feature", "properties": { "OBJECTID": 138, "ZIP": 98074, "ZIPCODE": "98074", "COUNTY": "033", "ZIP_TYPE": "Standard", "PREFERRED_CITY": "SAMMAMISH", "FEATURE_SOURCE": "Polygon Centroid", "COUNTY_NAME": "King County" }, "geometry": { "type": "Point", "coordinates": [ -122.033620734376541, 47.62141666391836 ] } },
{ "type": "Feature", "properties": { "OBJECTID": 139, "ZIP": 98075, "ZIPCODE": "98075", "COUNTY": "033", "ZIP_TYPE": "Standard", "PREFERRED_CITY": "SAMMAMIISH", "FEATURE_SOURCE": "Polygon Centroid", "COUNTY_NAME": "King County" }, "geometry": { "type": "Point", "coordinates": [ -122.05190648460183, 47.585596793323219 ] } },
{ "type": "Feature", "properties": { "OBJECTID": 140, "ZIP": 98077, "ZIPCODE": "98077", "COUNTY": "033", "ZIP_TYPE": "Standard", "PREFERRED_CITY": "WOODINVILLE", "FEATURE_SOURCE": "Polygon Centroid", "COUNTY_NAME": "King County" }, "geometry": { "type": "Point", "coordinates": [ -122.050881723940364, 47.747028366477274 ] } },
{ "type": "Feature", "properties": { "OBJECTID": 141, "ZIP": 98077, "ZIPCODE": "98077", "COUNTY": "061", "ZIP_TYPE": "Standard", "PREFERRED_CITY": "WOODINVILLE", "FEATURE_SOURCE": "Polygon Centroid", "COUNTY_NAME": "Snohomish County" }, "geometry": { "type": "Point", "coordinates": [ -122.092676080116959, 47.784344463938297 ] } },
{ "type": "Feature", "properties": { "OBJECTID": 142, "ZIP": 98087, "ZIPCODE": "98087", "COUNTY": "061", "ZIP_TYPE": "Standard", "PREFERRED_CITY": "LYNNWOOD", "FEATURE_SOURCE": "Polygon Centroid", "COUNTY_NAME": "Snohomish County" }, "geometry": { "type": "Point", "coordinates": [ -122.265900170326617, 47.863482571640766 ] } },
{ "type": "Feature", "properties": { "OBJECTID": 143, "ZIP": 98092, "ZIPCODE": "98092", "COUNTY": "033", "ZIP_TYPE": "Standard", "PREFERRED_CITY": "AUBURN", "FEATURE_SOURCE": "Polygon Centroid", "COUNTY_NAME": "King County" }, "geometry": { "type": "Point", "coordinates": [ -122.126496305110734, 47.289322104185999 ] } },
{ "type": "Feature", "properties": { "OBJECTID": 144, "ZIP": 98092, "ZIPCODE": "98092", "COUNTY": "053", "ZIP_TYPE": "Standard", "PREFERRED_CITY": "AUBURN", "FEATURE_SOURCE": "Polygon Centroid", "COUNTY_NAME": "Pierce County" }, "geometry": { "type": "Point", "coordinates": [ -122.211898646956627, 47.249510729711957 ] } },
{ "type": "Feature", "properties": { "OBJECTID": 145, "ZIP": 98101, "ZIPCODE": "98101", "COUNTY": "033", "ZIP_TYPE": "Standard", "PREFERRED_CITY": "SEATTLE", "FEATURE_SOURCE": "Polygon Centroid", "COUNTY_NAME": "King County" }, "geometry": { "type": "Point", "coordinates": [ -122.33440219657075, 47.611470162870503 ] } },
{ "type": "Feature", "properties": { "OBJECTID": 146, "ZIP": 98102, "ZIPCODE": "98102", "COUNTY": "033", "ZIP_TYPE": "Standard", "PREFERRED_CITY": "SEATTLE", "FEATURE_SOURCE": "Polygon Centroid", "COUNTY_NAME": "King County" }, "geometry": { "type": "Point", "coordinates": [ -122.32278808888114, 47.636422108644865 ] } },
{ "type": "Feature", "properties": { "OBJECTID": 147, "ZIP": 98103, "ZIPCODE": "98103", "COUNTY": "033", "ZIP_TYPE": "Standard", "PREFERRED_CITY": "SEATTLE", "FEATURE_SOURCE": "Polygon Centroid", "COUNTY_NAME": "King County" }, "geometry": { "type": "Point", "coordinates": [ -122.342550782872593, 47.673692053792436 ] } },
{ "type": "Feature", "properties": { "OBJECTID": 148, "ZIP": 98104, "ZIPCODE": "98104", "COUNTY": "033", "ZIP_TYPE": "Standard", "PREFERRED_CITY": "SEATTLE", "FEATURE_SOURCE": "Polygon Centroid", "COUNTY_NAME": "King County" }, "geometry": { "type": "Point", "coordinates": [ -122.328505351878263, 47.602131868879724 ] } },
{ "type": "Feature", "properties": { "OBJECTID": 149, "ZIP": 98105, "ZIPCODE": "98105", "COUNTY": "033", "ZIP_TYPE": "Standard", "PREFERRED_CITY": "SEATTLE", "FEATURE_SOURCE": "Polygon Centroid", "COUNTY_NAME": "King County" }, "geometry": { "type": "Point", "coordinates": [ -122.31026782930428, 47.6676362433655 ] } },
{ "type": "Feature", "properties": { "OBJECTID": 150, "ZIP": 98106, "ZIPCODE": "98106", "COUNTY": "033", "ZIP_TYPE": "Standard", "PREFERRED_CITY": "SEATTLE", "FEATURE_SOURCE": "Polygon Centroid", "COUNTY_NAME": "King County" }, "geometry": { "type": "Point", "coordinates": [ -122.353014859704857, 47.542137223655274 ] } },
{ "type": "Feature", "properties": { "OBJECTID": 151, "ZIP": 98107, "ZIPCODE": "98107", "COUNTY": "033", "ZIP_TYPE": "Standard", "PREFERRED_CITY": "SEATTLE", "FEATURE_SOURCE": "Polygon Centroid", "COUNTY_NAME": "King County" }, "geometry": { "type": "Point", "coordinates": [ -122.377022859856268, 47.667532942980621 ] } },
{ "type": "Feature", "properties": { "OBJECTID": 152, "ZIP": 98108, "ZIPCODE": "98108", "COUNTY": "033", "ZIP_TYPE": "Standard", "PREFERRED_CITY": "SEATTLE", "FEATURE_SOURCE": "Polygon Centroid", "COUNTY_NAME": "King County" }, "geometry": { "type": "Point", "coordinates": [ -122.312472459962507, 47.540927961444588 ] } },
{ "type": "Feature", "properties": { "OBJECTID": 153, "ZIP": 98109, "ZIPCODE": "98109", "COUNTY": "033", "ZIP_TYPE": "Standard", "PREFERRED_CITY": "SEATTLE", "FEATURE_SOURCE": "Polygon Centroid", "COUNTY_NAME": "King County" }, "geometry": { "type": "Point", "coordinates": [ -122.344475265976513, 47.631683778579081 ] } },
{ "type": "Feature", "properties": { "OBJECTID": 154, "ZIP": 98110, "ZIPCODE": "98110", "COUNTY": "035", "ZIP_TYPE": "Standard", "PREFERRED_CITY": "BAINBRIDGE ISLAND", "FEATURE_SOURCE": "Polygon Centroid", "COUNTY_NAME": "Kitsap County" }, "geometry": { "type": "Point", "coordinates": [ -122.537933253576213, 47.644754037155145 ] } },
{ "type": "Feature", "properties": { "OBJECTID": 155, "ZIP": 98112, "ZIPCODE": "98112", "COUNTY": "033", "ZIP_TYPE": "Standard", "PREFERRED_CITY": "SEATTLE", "FEATURE_SOURCE": "Polygon Centroid", "COUNTY_NAME": "King County" }, "geometry": { "type": "Point", "coordinates": [ -122.297633530182466, 47.631879665086871 ] } },
{ "type": "Feature", "properties": { "OBJECTID": 156, "ZIP": 98115, "ZIPCODE": "98115", "COUNTY": "033", "ZIP_TYPE": "Standard", "PREFERRED_CITY": "SEATTLE", "FEATURE_SOURCE": "Polygon Centroid", "COUNTY_NAME": "King County" }, "geometry": { "type": "Point", "coordinates": [ -122.29266009184937, 47.685420189646948 ] } },
{ "type": "Feature", "properties": { "OBJECTID": 157, "ZIP": 98116, "ZIPCODE": "98116", "COUNTY": "033", "ZIP_TYPE": "Standard", "PREFERRED_CITY": "SEATTLE", "FEATURE_SOURCE": "Polygon Centroid", "COUNTY_NAME": "King County" }, "geometry": { "type": "Point", "coordinates": [ -122.394641227871062, 47.573911933636175 ] } },
{ "type": "Feature", "properties": { "OBJECTID": 158, "ZIP": 98117, "ZIPCODE": "98117", "COUNTY": "033", "ZIP_TYPE": "Standard", "PREFERRED_CITY": "SEATTLE", "FEATURE_SOURCE": "Polygon Centroid", "COUNTY_NAME": "King County" }, "geometry": { "type": "Point", "coordinates": [ -122.380865831530244, 47.688172928171163 ] } },
{ "type": "Feature", "properties": { "OBJECTID": 159, "ZIP": 98118, "ZIPCODE": "98118", "COUNTY": "033", "ZIP_TYPE": "Standard", "PREFERRED_CITY": "SEATTLE", "FEATURE_SOURCE": "Polygon Centroid", "COUNTY_NAME": "King County" }, "geometry": { "type": "Point", "coordinates": [ -122.274531170937948, 47.539905764251444 ] } },
{ "type": "Feature", "properties": { "OBJECTID": 160, "ZIP": 98119, "ZIPCODE": "98119", "COUNTY": "033", "ZIP_TYPE": "Standard", "PREFERRED_CITY": "SEATTLE", "FEATURE_SOURCE": "Polygon Centroid", "COUNTY_NAME": "King County" }, "geometry": { "type": "Point", "coordinates": [ -122.370391009216391, 47.639889025411442 ] } },
{ "type": "Feature", "properties": { "OBJECTID": 161, "ZIP": 98121, "ZIPCODE": "98121", "COUNTY": "033", "ZIP_TYPE": "Standard", "PREFERRED_CITY": "SEATTLE", "FEATURE_SOURCE": "Polygon Centroid", "COUNTY_NAME": "King County" }, "geometry": { "type": "Point", "coordinates": [ -122.346904867387309, 47.615227423563304 ] } },
{ "type": "Feature", "properties": { "OBJECTID": 162, "ZIP": 98122, "ZIPCODE": "98122", "COUNTY": "033", "ZIP_TYPE": "Standard", "PREFERRED_CITY": "SEATTLE", "FEATURE_SOURCE": "Polygon Centroid", "COUNTY_NAME": "King County" }, "geometry": { "type": "Point", "coordinates": [ -122.303189218642061, 47.6105052013747 ] } },
{ "type": "Feature", "properties": { "OBJECTID": 163, "ZIP": 98125, "ZIPCODE": "98125", "COUNTY": "033", "ZIP_TYPE": "Standard", "PREFERRED_CITY": "SEATTLE", "FEATURE_SOURCE": "Polygon Centroid", "COUNTY_NAME": "King County" }, "geometry": { "type": "Point", "coordinates": [ -122.303722930567972, 47.716827970008204 ] } },
{ "type": "Feature", "properties": { "OBJECTID": 164, "ZIP": 98126, "ZIPCODE": "98126", "COUNTY": "033", "ZIP_TYPE": "Standard", "PREFERRED_CITY": "SEATTLE", "FEATURE_SOURCE": "Polygon Centroid", "COUNTY_NAME": "King County" }, "geometry": { "type": "Point", "coordinates": [ -122.373835530822973, 47.549080551566341 ] } },
{ "type": "Feature", "properties": { "OBJECTID": 165, "ZIP": 98133, "ZIPCODE": "98133", "COUNTY": "033", "ZIP_TYPE": "Standard", "PREFERRED_CITY": "SEATTLE", "FEATURE_SOURCE": "Polygon Centroid", "COUNTY_NAME": "King County" }, "geometry": { "type": "Point", "coordinates": [ -122.343919323729111, 47.739705469015924 ] } },
{ "type": "Feature", "properties": { "OBJECTID": 166, "ZIP": 98134, "ZIPCODE": "98134", "COUNTY": "033", "ZIP_TYPE": "Standard", "PREFERRED_CITY": "SEATTLE", "FEATURE_SOURCE": "Polygon Centroid", "COUNTY_NAME": "King County" }, "geometry": { "type": "Point", "coordinates": [ -122.336836227212501, 47.576956441401265 ] } },
{ "type": "Feature", "properties": { "OBJECTID": 167, "ZIP": 98136, "ZIPCODE": "98136", "COUNTY": "033", "ZIP_TYPE": "Standard", "PREFERRED_CITY": "SEATTLE", "FEATURE_SOURCE": "Polygon Centroid", "COUNTY_NAME": "King County" }, "geometry": { "type": "Point", "coordinates": [ -122.38962598143921, 47.53683792970174 ] } },
{ "type": "Feature", "properties": { "OBJECTID": 168, "ZIP": 98144, "ZIPCODE": "98144", "COUNTY": "033", "ZIP_TYPE": "Standard", "PREFERRED_CITY": "SEATTLE", "FEATURE_SOURCE": "Polygon Centroid", "COUNTY_NAME": "King County" }, "geometry": { "type": "Point", "coordinates": [ -122.30099463663322, 47.585266834669021 ] } },
{ "type": "Feature", "properties": { "OBJECTID": 169, "ZIP": 98146, "ZIPCODE": "98146", "COUNTY": "033", "ZIP_TYPE": "Standard", "PREFERRED_CITY": "SEATTLE", "FEATURE_SOURCE": "Polygon Centroid", "COUNTY_NAME": "King County" }, "geometry": { "type": "Point", "coordinates": [ -122.357778614050773, 47.500342051738485 ] } },
{ "type": "Feature", "properties": { "OBJECTID": 170, "ZIP": 98148, "ZIPCODE": "98148", "COUNTY": "033", "ZIP_TYPE": "Standard", "PREFERRED_CITY": "SEATTLE", "FEATURE_SOURCE": "Polygon Centroid", "COUNTY_NAME": "King County" }, "geometry": { "type": "Point", "coordinates": [ -122.325659930384717, 47.446431654195436 ] } },
{ "type": "Feature", "properties": { "OBJECTID": 171, "ZIP": 98154, "ZIPCODE": "98154", "COUNTY": "033", "ZIP_TYPE": "Standard", "PREFERRED_CITY": "SEATTLE", "FEATURE_SOURCE": "Polygon Centroid", "COUNTY_NAME": "King County" }, "geometry": { "type": "Point", "coordinates": [ -122.333790425397069, 47.606212599153046 ] } },
{ "type": "Feature", "properties": { "OBJECTID": 172, "ZIP": 98155, "ZIPCODE": "98155", "COUNTY": "033", "ZIP_TYPE": "Standard", "PREFERRED_CITY": "SEATTLE", "FEATURE_SOURCE": "Polygon Centroid", "COUNTY_NAME": "King County" }, "geometry": { "type": "Point", "coordinates": [ -122.30238669124607, 47.75701679438545 ] } },
{ "type": "Feature", "properties": { "OBJECTID": 173, "ZIP": 98158, "ZIPCODE": "98158", "COUNTY": "033", "ZIP_TYPE": "Standard", "PREFERRED_CITY": "SEATTLE", "FEATURE_SOURCE": "Polygon Centroid", "COUNTY_NAME": "King County" }, "geometry": { "type": "Point", "coordinates": [ -122.307821067266929, 47.449852342164327 ] } },
{ "type": "Feature", "properties": { "OBJECTID": 174, "ZIP": 98164, "ZIPCODE": "98164", "COUNTY": "033", "ZIP_TYPE": "Standard", "PREFERRED_CITY": "SEATTLE", "FEATURE_SOURCE": "Polygon Centroid", "COUNTY_NAME": "King County" }, "geometry": { "type": "Point", "coordinates": [ -122.332019723896678, 47.605966751419004 ] } },
{ "type": "Feature", "properties": { "OBJECTID": 175, "ZIP": 98166, "ZIPCODE": "98166", "COUNTY": "033", "ZIP_TYPE": "Standard", "PREFERRED_CITY": "SEATTLE", "FEATURE_SOURCE": "Polygon Centroid", "COUNTY_NAME": "King County" }, "geometry": { "type": "Point", "coordinates": [ -122.349762274658531, 47.453088383620027 ] } },
{ "type": "Feature", "properties": { "OBJECTID": 176, "ZIP": 98168, "ZIPCODE": "98168", "COUNTY": "033", "ZIP_TYPE": "Standard", "PREFERRED_CITY": "SEATTLE", "FEATURE_SOURCE": "Polygon Centroid", "COUNTY_NAME": "King County" }, "geometry": { "type": "Point", "coordinates": [ -122.300840771219583, 47.489042383650258 ] } },
{ "type": "Feature", "properties": { "OBJECTID": 177, "ZIP": 98177, "ZIPCODE": "98177", "COUNTY": "033", "ZIP_TYPE": "Standard", "PREFERRED_CITY": "SEATTLE", "FEATURE_SOURCE": "Polygon Centroid", "COUNTY_NAME": "King County" }, "geometry": { "type": "Point", "coordinates": [ -122.370539363103504, 47.742457730848869 ] } },
{ "type": "Feature", "properties": { "OBJECTID": 178, "ZIP": 98177, "ZIPCODE": "98177", "COUNTY": "061", "ZIP_TYPE": "Standard", "PREFERRED_CITY": "SEATTLE", "FEATURE_SOURCE": "Polygon Centroid", "COUNTY_NAME": "Snohomish County" }, "geometry": { "type": "Point", "coordinates": [ -122.394526288651221, 47.780107697811303 ] } },
{ "type": "Feature", "properties": { "OBJECTID": 179, "ZIP": 98178, "ZIPCODE": "98178", "COUNTY": "033", "ZIP_TYPE": "Standard", "PREFERRED_CITY": "SEATTLE", "FEATURE_SOURCE": "Polygon Centroid", "COUNTY_NAME": "King County" }, "geometry": { "type": "Point", "coordinates": [ -122.250603089657687, 47.496918917404848 ] } },
{ "type": "Feature", "properties": { "OBJECTID": 180, "ZIP": 98188, "ZIPCODE": "98188", "COUNTY": "033", "ZIP_TYPE": "Standard", "PREFERRED_CITY": "SEATTLE", "FEATURE_SOURCE": "Polygon Centroid", "COUNTY_NAME": "King County" }, "geometry": { "type": "Point", "coordinates": [ -122.274848431095876, 47.447367779132691 ] } },
{ "type": "Feature", "properties": { "OBJECTID": 181, "ZIP": 98195, "ZIPCODE": "98195", "COUNTY": "033", "ZIP_TYPE": "Standard", "PREFERRED_CITY": "SEATTLE", "FEATURE_SOURCE": "Polygon Centroid", "COUNTY_NAME": "King County" }, "geometry": { "type": "Point", "coordinates": [ -122.303024829421105, 47.655059134294184 ] } },
{ "type": "Feature", "properties": { "OBJECTID": 182, "ZIP": 98198, "ZIPCODE": "98198", "COUNTY": "033", "ZIP_TYPE": "Standard", "PREFERRED_CITY": "SEATTLE", "FEATURE_SOURCE": "Polygon Centroid", "COUNTY_NAME": "King County" }, "geometry": { "type": "Point", "coordinates": [ -122.31097683889665, 47.395195477249651 ] } },
{ "type": "Feature", "properties": { "OBJECTID": 183, "ZIP": 98199, "ZIPCODE": "98199", "COUNTY": "033", "ZIP_TYPE": "Standard", "PREFERRED_CITY": "SEATTLE", "FEATURE_SOURCE": "Polygon Centroid", "COUNTY_NAME": "King County" }, "geometry": { "type": "Point", "coordinates": [ -122.402877714349344, 47.651865330039449 ] } },
{ "type": "Feature", "properties": { "OBJECTID": 184, "ZIP": 98201, "ZIPCODE": "98201", "COUNTY": "061", "ZIP_TYPE": "Standard", "PREFERRED_CITY": "EVERETT", "FEATURE_SOURCE": "Polygon Centroid", "COUNTY_NAME": "Snohomish County" }, "geometry": { "type": "Point", "coordinates": [ -122.178867947116345, 47.98937446745397 ] } },
{ "type": "Feature", "properties": { "OBJECTID": 185, "ZIP": 98203, "ZIPCODE": "98203", "COUNTY": "061", "ZIP_TYPE": "Standard", "PREFERRED_CITY": "EVERETT", "FEATURE_SOURCE": "Polygon Centroid", "COUNTY_NAME": "Snohomish County" }, "geometry": { "type": "Point", "coordinates": [ -122.233541697813038, 47.943523189336183 ] } },
{ "type": "Feature", "properties": { "OBJECTID": 186, "ZIP": 98204, "ZIPCODE": "98204", "COUNTY": "061", "ZIP_TYPE": "Standard", "PREFERRED_CITY": "EVERETT", "FEATURE_SOURCE": "Polygon Centroid", "COUNTY_NAME": "Snohomish County" }, "geometry": { "type": "Point", "coordinates": [ -122.262593279247923, 47.904647333907192 ] } },
{ "type": "Feature", "properties": { "OBJECTID": 187, "ZIP": 98208, "ZIPCODE": "98208", "COUNTY": "061", "ZIP_TYPE": "Standard", "PREFERRED_CITY": "EVERETT", "FEATURE_SOURCE": "Polygon Centroid", "COUNTY_NAME": "Snohomish County" }, "geometry": { "type": "Point", "coordinates": [ -122.196486801059592, 47.902820376339157 ] } },
{ "type": "Feature", "properties": { "OBJECTID": 188, "ZIP": 98221, "ZIPCODE": "98221", "COUNTY": "057", "ZIP_TYPE": "Standard", "PREFERRED_CITY": "ANACORTES", "FEATURE_SOURCE": "Polygon Centroid", "COUNTY_NAME": "Skagit County" }, "geometry": { "type": "Point", "coordinates": [ -122.617387257593052, 48.46500548686604 ] } },
{ "type": "Feature", "properties": { "OBJECTID": 189, "ZIP": 98223, "ZIPCODE": "98223", "COUNTY": "057", "ZIP_TYPE": "Standard", "PREFERRED_CITY": "ARLINGTON", "FEATURE_SOURCE": "Polygon Centroid", "COUNTY_NAME": "Skagit County" }, "geometry": { "type": "Point", "coordinates": [ -121.993738852793996, 48.30096003317081 ] } },
{ "type": "Feature", "properties": { "OBJECTID": 190, "ZIP": 98223, "ZIPCODE": "98223", "COUNTY": "061", "ZIP_TYPE": "Standard", "PREFERRED_CITY": "ARLINGTON", "FEATURE_SOURCE": "Polygon Centroid", "COUNTY_NAME": "Snohomish County" }, "geometry": { "type": "Point", "coordinates": [ -121.952541642107164, 48.206002079252755 ] } },
{ "type": "Feature", "properties": { "OBJECTID": 191, "ZIP": 98224, "ZIPCODE": "98224", "COUNTY": "033", "ZIP_TYPE": "PO Box", "PREFERRED_CITY": "BARING", "FEATURE_SOURCE": "Polygon Centroid", "COUNTY_NAME": "King County" }, "geometry": { "type": "Point", "coordinates": [ -121.472667772660628, 47.738020522320269 ] } },
{ "type": "Feature", "properties": { "OBJECTID": 192, "ZIP": 98229, "ZIPCODE": "98229", "COUNTY": "057", "ZIP_TYPE": "Standard", "PREFERRED_CITY": "BELLINGHAM", "FEATURE_SOURCE": "Polygon Centroid", "COUNTY_NAME": "Skagit County" }, "geometry": { "type": "Point", "coordinates": [ -122.361276580802084, 48.632826556204982 ] } },
{ "type": "Feature", "properties": { "OBJECTID": 193, "ZIP": 98232, "ZIPCODE": "98232", "COUNTY": "057", "ZIP_TYPE": "Standard", "PREFERRED_CITY": "BOW", "FEATURE_SOURCE": "Polygon Centroid", "COUNTY_NAME": "Skagit County" }, "geometry": { "type": "Point", "coordinates": [ -122.394262843435143, 48.571436151802864 ] } },
{ "type": "Feature", "properties": { "OBJECTID": 194, "ZIP": 98233, "ZIPCODE": "98233", "COUNTY": "057", "ZIP_TYPE": "Standard", "PREFERRED_CITY": "BURLINGTON", "FEATURE_SOURCE": "Polygon Centroid", "COUNTY_NAME": "Skagit County" }, "geometry": { "type": "Point", "coordinates": [ -122.324326059790693, 48.489191437099784 ] } },
{ "type": "Feature", "properties": { "OBJECTID": 195, "ZIP": 98236, "ZIPCODE": "98236", "COUNTY": "029", "ZIP_TYPE": "Standard", "PREFERRED_CITY": "CLINTON", "FEATURE_SOURCE": "Polygon Centroid", "COUNTY_NAME": "Island County" }, "geometry": { "type": "Point", "coordinates": [ -122.405000821888933, 47.959137843750185 ] } },
{ "type": "Feature", "properties": { "OBJECTID": 196, "ZIP": 98237, "ZIPCODE": "98237", "COUNTY": "057", "ZIP_TYPE": "Standard", "PREFERRED_CITY": "CONCRETE", "FEATURE_SOURCE": "Polygon Centroid", "COUNTY_NAME": "Skagit County" }, "geometry": { "type": "Point", "coordinates": [ -121.77726831417246, 48.557661112849061 ] } },
{ "type": "Feature", "properties": { "OBJECTID": 197, "ZIP": 98239, "ZIPCODE": "98239", "COUNTY": "029", "ZIP_TYPE": "Standard", "PREFERRED_CITY": "COUPEVILLE", "FEATURE_SOURCE": "Polygon Centroid", "COUNTY_NAME": "Island County" }, "geometry": { "type": "Point", "coordinates": [ -122.659647454803249, 48.191715678038555 ] } },
{ "type": "Feature", "properties": { "OBJECTID": 198, "ZIP": 98241, "ZIPCODE": "98241", "COUNTY": "057", "ZIP_TYPE": "Standard", "PREFERRED_CITY": "DARRINGTON", "FEATURE_SOURCE": "Polygon Centroid", "COUNTY_NAME": "Skagit County" }, "geometry": { "type": "Point", "coordinates": [ -121.508945498062474, 48.317748896523071 ] } },
{ "type": "Feature", "properties": { "OBJECTID": 199, "ZIP": 98241, "ZIPCODE": "98241", "COUNTY": "061", "ZIP_TYPE": "Standard", "PREFERRED_CITY": "DARRINGTON", "FEATURE_SOURCE": "Polygon Centroid", "COUNTY_NAME": "Snohomish County" }, "geometry": { "type": "Point", "coordinates": [ -121.313913051345338, 48.209251446555477 ] } },
{ "type": "Feature", "properties": { "OBJECTID": 200, "ZIP": 98249, "ZIPCODE": "98249", "COUNTY": "029", "ZIP_TYPE": "Standard", "PREFERRED_CITY": "FREELAND", "FEATURE_SOURCE": "Polygon Centroid", "COUNTY_NAME": "Island County" }, "geometry": { "type": "Point", "coordinates": [ -122.575162940797171, 48.031602208089978 ] } },
{ "type": "Feature", "properties": { "OBJECTID": 201, "ZIP": 98251, "ZIPCODE": "98251", "COUNTY": "061", "ZIP_TYPE": "Standard", "PREFERRED_CITY": "GOLD BAR", "FEATURE_SOURCE": "Polygon Centroid", "COUNTY_NAME": "Snohomish County" }, "geometry": { "type": "Point", "coordinates": [ -121.651886211339786, 47.827879219901142 ] } },
{ "type": "Feature", "properties": { "OBJECTID": 202, "ZIP": 98252, "ZIPCODE": "98252", "COUNTY": "061", "ZIP_TYPE": "Standard", "PREFERRED_CITY": "GRANITE FALLS", "FEATURE_SOURCE": "Polygon Centroid", "COUNTY_NAME": "Snohomish County" }, "geometry": { "type": "Point", "coordinates": [ -121.511540632075352, 48.057463930998658 ] } },
{ "type": "Feature", "properties": { "OBJECTID": 203, "ZIP": 98253, "ZIPCODE": "98253", "COUNTY": "029", "ZIP_TYPE": "Standard", "PREFERRED_CITY": "GREENBANK", "FEATURE_SOURCE": "Polygon Centroid", "COUNTY_NAME": "Island County" }, "geometry": { "type": "Point", "coordinates": [ -122.577906429988033, 48.084089989174373 ] } },
{ "type": "Feature", "properties": { "OBJECTID": 204, "ZIP": 98255, "ZIPCODE": "98255", "COUNTY": "057", "ZIP_TYPE": "Standard", "PREFERRED_CITY": "HAMILTON", "FEATURE_SOURCE": "Polygon Centroid", "COUNTY_NAME": "Skagit County" }, "geometry": { "type": "Point", "coordinates": [ -121.990396452863379, 48.52223899382011 ] } },
{ "type": "Feature", "properties": { "OBJECTID": 205, "ZIP": 98256, "ZIPCODE": "98256", "COUNTY": "061", "ZIP_TYPE": "Standard", "PREFERRED_CITY": "INDEX", "FEATURE_SOURCE": "Polygon Centroid", "COUNTY_NAME": "Snohomish County" }, "geometry": { "type": "Point", "coordinates": [ -121.555787713795326, 47.822037214249129 ] } },
{ "type": "Feature", "properties": { "OBJECTID": 206, "ZIP": 98257, "ZIPCODE": "98257", "COUNTY": "057", "ZIP_TYPE": "Standard", "PREFERRED_CITY": "LA CONNER", "FEATURE_SOURCE": "Polygon Centroid", "COUNTY_NAME": "Skagit County" }, "geometry": { "type": "Point", "coordinates": [ -122.526281458763222, 48.41722657134536 ] } },
{ "type": "Feature", "properties": { "OBJECTID": 207, "ZIP": 98258, "ZIPCODE": "98258", "COUNTY": "061", "ZIP_TYPE": "Standard", "PREFERRED_CITY": "LAKE STEVENS", "FEATURE_SOURCE": "Polygon Centroid", "COUNTY_NAME": "Snohomish County" }, "geometry": { "type": "Point", "coordinates": [ -122.076594191538192, 48.031285929794478 ] } },
{ "type": "Feature", "properties": { "OBJECTID": 208, "ZIP": 98260, "ZIPCODE": "98260", "COUNTY": "029", "ZIP_TYPE": "Standard", "PREFERRED_CITY": "LANGLEY", "FEATURE_SOURCE": "Polygon Centroid", "COUNTY_NAME": "Island County" }, "geometry": { "type": "Point", "coordinates": [ -122.45130081270193, 48.03201182244193 ] } },
{ "type": "Feature", "properties": { "OBJECTID": 209, "ZIP": 98263, "ZIPCODE": "98263", "COUNTY": "057", "ZIP_TYPE": "Standard", "PREFERRED_CITY": "LYMAN", "FEATURE_SOURCE": "Polygon Centroid", "COUNTY_NAME": "Skagit County" }, "geometry": { "type": "Point", "coordinates": [ -122.062453045338287, 48.526490776231277 ] } },
{ "type": "Feature", "properties": { "OBJECTID": 210, "ZIP": 98267, "ZIPCODE": "98267", "COUNTY": "057", "ZIP_TYPE": "Standard", "PREFERRED_CITY": "MARBLEMOUNT", "FEATURE_SOURCE": "Polygon Centroid", "COUNTY_NAME": "Skagit County" }, "geometry": { "type": "Point", "coordinates": [ -121.140671256181207, 48.509620287158107 ] } },
{ "type": "Feature", "properties": { "OBJECTID": 211, "ZIP": 98270, "ZIPCODE": "98270", "COUNTY": "061", "ZIP_TYPE": "Standard", "PREFERRED_CITY": "MARYSVILLE", "FEATURE_SOURCE": "Polygon Centroid", "COUNTY_NAME": "Snohomish County" }, "geometry": { "type": "Point", "coordinates": [ -122.145426852033467, 48.057481047761058 ] } },
{ "type": "Feature", "properties": { "OBJECTID": 212, "ZIP": 98271, "ZIPCODE": "98271", "COUNTY": "061", "ZIP_TYPE": "Standard", "PREFERRED_CITY": "MARYSVILLE", "FEATURE_SOURCE": "Polygon Centroid", "COUNTY_NAME": "Snohomish County" }, "geometry": { "type": "Point", "coordinates": [ -122.234146238283941, 48.094775660955968 ] } },
{ "type": "Feature", "properties": { "OBJECTID": 213, "ZIP": 98272, "ZIPCODE": "98272", "COUNTY": "061", "ZIP_TYPE": "Standard", "PREFERRED_CITY": "MONROE", "FEATURE_SOURCE": "Polygon Centroid", "COUNTY_NAME": "Snohomish County" }, "geometry": { "type": "Point", "coordinates": [ -121.908850648474569, 47.84708372546249 ] } },
{ "type": "Feature", "properties": { "OBJECTID": 214, "ZIP": 98273, "ZIPCODE": "98273", "COUNTY": "057", "ZIP_TYPE": "Standard", "PREFERRED_CITY": "MOUNT VERNON", "FEATURE_SOURCE": "Polygon Centroid", "COUNTY_NAME": "Skagit County" }, "geometry": { "type": "Point", "coordinates": [ -122.364839473153765, 48.421163229957308 ] } },
{ "type": "Feature", "properties": { "OBJECTID": 215, "ZIP": 98274, "ZIPCODE": "98274", "COUNTY": "057", "ZIP_TYPE": "Standard", "PREFERRED_CITY": "MOUNT VERNON", "FEATURE_SOURCE": "Polygon Centroid", "COUNTY_NAME": "Skagit County" }, "geometry": { "type": "Point", "coordinates": [ -122.238331219189121, 48.353307826127057 ] } },
{ "type": "Feature", "properties": { "OBJECTID": 216, "ZIP": 98275, "ZIPCODE": "98275", "COUNTY": "061", "ZIP_TYPE": "Standard", "PREFERRED_CITY": "MUKILTEO", "FEATURE_SOURCE": "Polygon Centroid", "COUNTY_NAME": "Snohomish County" }, "geometry": { "type": "Point", "coordinates": [ -122.305156685405436, 47.913911274709818 ] } },
{ "type": "Feature", "properties": { "OBJECTID": 217, "ZIP": 98277, "ZIPCODE": "98277", "COUNTY": "029", "ZIP_TYPE": "Standard", "PREFERRED_CITY": "OAK HARBOR", "FEATURE_SOURCE": "Polygon Centroid", "COUNTY_NAME": "Island County" }, "geometry": { "type": "Point", "coordinates": [ -122.632373681916107, 48.331897261736195 ] } },
{ "type": "Feature", "properties": { "OBJECTID": 218, "ZIP": 98282, "ZIPCODE": "98282", "COUNTY": "029", "ZIP_TYPE": "Standard", "PREFERRED_CITY": "CAMANO ISLAND", "FEATURE_SOURCE": "Polygon Centroid", "COUNTY_NAME": "Island County" }, "geometry": { "type": "Point", "coordinates": [ -122.493723176307995, 48.186812183669218 ] } },
{ "type": "Feature", "properties": { "OBJECTID": 219, "ZIP": 98282, "ZIPCODE": "98282", "COUNTY": "061", "ZIP_TYPE": "Standard", "PREFERRED_CITY": "CAMANO ISLAND", "FEATURE_SOURCE": "Polygon Centroid", "COUNTY_NAME": "Snohomish County" }, "geometry": { "type": "Point", "coordinates": [ -122.38374147085662, 48.234699764858249 ] } },
{ "type": "Feature", "properties": { "OBJECTID": 220, "ZIP": 98283, "ZIPCODE": "98283", "COUNTY": "057", "ZIP_TYPE": "Standard", "PREFERRED_CITY": "ROCKPORT", "FEATURE_SOURCE": "Polygon Centroid", "COUNTY_NAME": "Skagit County" }, "geometry": { "type": "Point", "coordinates": [ -121.548395731823931, 48.484508805704145 ] } },
{ "type": "Feature", "properties": { "OBJECTID": 221, "ZIP": 98284, "ZIPCODE": "98284", "COUNTY": "057", "ZIP_TYPE": "Standard", "PREFERRED_CITY": "SEDRO WOOLLEY", "FEATURE_SOURCE": "Polygon Centroid", "COUNTY_NAME": "Skagit County" }, "geometry": { "type": "Point", "coordinates": [ -121.981804649528655, 48.469036437108024 ] } },
{ "type": "Feature", "properties": { "OBJECTID": 222, "ZIP": 98288, "ZIPCODE": "98288", "COUNTY": "033", "ZIP_TYPE": "PO Box", "PREFERRED_CITY": "SKYKOMISH", "FEATURE_SOURCE": "Polygon Centroid", "COUNTY_NAME": "King County" }, "geometry": { "type": "Point", "coordinates": [ -121.335676586343482, 47.640768999653474 ] } },
{ "type": "Feature", "properties": { "OBJECTID": 223, "ZIP": 98290, "ZIPCODE": "98290", "COUNTY": "061", "ZIP_TYPE": "Standard", "PREFERRED_CITY": "SNOHOMISH", "FEATURE_SOURCE": "Polygon Centroid", "COUNTY_NAME": "Snohomish County" }, "geometry": { "type": "Point", "coordinates": [ -122.004142924251894, 47.947291721149739 ] } },
{ "type": "Feature", "properties": { "OBJECTID": 224, "ZIP": 98292, "ZIPCODE": "98292", "COUNTY": "057", "ZIP_TYPE": "Standard", "PREFERRED_CITY": "STANWOOD", "FEATURE_SOURCE": "Polygon Centroid", "COUNTY_NAME": "Skagit County" }, "geometry": { "type": "Point", "coordinates": [ -122.333069809743975, 48.30116539981772 ] } },
{ "type": "Feature", "properties": { "OBJECTID": 225, "ZIP": 98292, "ZIPCODE": "98292", "COUNTY": "061", "ZIP_TYPE": "Standard", "PREFERRED_CITY": "STANWOOD", "FEATURE_SOURCE": "Polygon Centroid", "COUNTY_NAME": "Snohomish County" }, "geometry": { "type": "Point", "coordinates": [ -122.304345327853696, 48.220428376338226 ] } },
{ "type": "Feature", "properties": { "OBJECTID": 226, "ZIP": 98294, "ZIPCODE": "98294", "COUNTY": "061", "ZIP_TYPE": "Standard", "PREFERRED_CITY": "SULTAN", "FEATURE_SOURCE": "Polygon Centroid", "COUNTY_NAME": "Snohomish County" }, "geometry": { "type": "Point", "coordinates": [ -121.466400800095641, 47.887241677441487 ] } },
{ "type": "Feature", "properties": { "OBJECTID": 227, "ZIP": 98296, "ZIPCODE": "98296", "COUNTY": "061", "ZIP_TYPE": "Standard", "PREFERRED_CITY": "SNOHOMISH", "FEATURE_SOURCE": "Polygon Centroid", "COUNTY_NAME": "Snohomish County" }, "geometry": { "type": "Point", "coordinates": [ -122.104955405640425, 47.846328584900284 ] } },
{ "type": "Feature", "properties": { "OBJECTID": 228, "ZIP": 98303, "ZIPCODE": "98303", "COUNTY": "053", "ZIP_TYPE": "Standard", "PREFERRED_CITY": "ANDERSON ISLAND", "FEATURE_SOURCE": "Polygon Centroid", "COUNTY_NAME": "Pierce County" }, "geometry": { "type": "Point", "coordinates": [ -122.70385448027497, 47.158347849465052 ] } },
{ "type": "Feature", "properties": { "OBJECTID": 229, "ZIP": 98304, "ZIPCODE": "98304", "COUNTY": "053", "ZIP_TYPE": "Standard", "PREFERRED_CITY": "ASHFORD", "FEATURE_SOURCE": "Polygon Centroid", "COUNTY_NAME": "Pierce County" }, "geometry": { "type": "Point", "coordinates": [ -121.792515389770799, 46.84730691651928 ] } },
{ "type": "Feature", "properties": { "OBJECTID": 230, "ZIP": 98310, "ZIPCODE": "98310", "COUNTY": "035", "ZIP_TYPE": "Standard", "PREFERRED_CITY": "BREMERTON", "FEATURE_SOURCE": "Polygon Centroid", "COUNTY_NAME": "Kitsap County" }, "geometry": { "type": "Point", "coordinates": [ -122.62219578448115, 47.594575264939124 ] } },
{ "type": "Feature", "properties": { "OBJECTID": 231, "ZIP": 98311, "ZIPCODE": "98311", "COUNTY": "035", "ZIP_TYPE": "Standard", "PREFERRED_CITY": "BREMERTON", "FEATURE_SOURCE": "Polygon Centroid", "COUNTY_NAME": "Kitsap County" }, "geometry": { "type": "Point", "coordinates": [ -122.636875062576081, 47.631474311201721 ] } },
{ "type": "Feature", "properties": { "OBJECTID": 232, "ZIP": 98312, "ZIPCODE": "98312", "COUNTY": "035", "ZIP_TYPE": "Standard", "PREFERRED_CITY": "BREMERTON", "FEATURE_SOURCE": "Polygon Centroid", "COUNTY_NAME": "Kitsap County" }, "geometry": { "type": "Point", "coordinates": [ -122.761588195370109, 47.561846782941224 ] } },
{ "type": "Feature", "properties": { "OBJECTID": 233, "ZIP": 98312, "ZIPCODE": "98312", "COUNTY": "045", "ZIP_TYPE": "Standard", "PREFERRED_CITY": "BREMERTON", "FEATURE_SOURCE": "Polygon Centroid", "COUNTY_NAME": "Mason County" }, "geometry": { "type": "Point", "coordinates": [ -122.857029719392003, 47.519290255088741 ] } },
{ "type": "Feature", "properties": { "OBJECTID": 234, "ZIP": 98314, "ZIPCODE": "98314", "COUNTY": "035", "ZIP_TYPE": "Unique", "PREFERRED_CITY": "BREMERTON", "FEATURE_SOURCE": "Polygon Centroid", "COUNTY_NAME": "Kitsap County" }, "geometry": { "type": "Point", "coordinates": [ -122.64287084110326, 47.559974636499639 ] } },
{ "type": "Feature", "properties": { "OBJECTID": 235, "ZIP": 98315, "ZIPCODE": "98315", "COUNTY": "035", "ZIP_TYPE": "Standard", "PREFERRED_CITY": "SILVERDALE", "FEATURE_SOURCE": "Polygon Centroid", "COUNTY_NAME": "Kitsap County" }, "geometry": { "type": "Point", "coordinates": [ -122.714429806195326, 47.722617815069412 ] } },
{ "type": "Feature", "properties": { "OBJECTID": 236, "ZIP": 98320, "ZIPCODE": "98320", "COUNTY": "031", "ZIP_TYPE": "Standard", "PREFERRED_CITY": "BRINNON", "FEATURE_SOURCE": "Polygon Centroid", "COUNTY_NAME": "Jefferson County" }, "geometry": { "type": "Point", "coordinates": [ -123.017583696263998, 47.698603734186129 ] } },
{ "type": "Feature", "properties": { "OBJECTID": 237, "ZIP": 98321, "ZIPCODE": "98321", "COUNTY": "053", "ZIP_TYPE": "Standard", "PREFERRED_CITY": "BUCKLEY", "FEATURE_SOURCE": "Polygon Centroid", "COUNTY_NAME": "Pierce County" }, "geometry": { "type": "Point", "coordinates": [ -121.985372686778916, 47.07041792158978 ] } },
{ "type": "Feature", "properties": { "OBJECTID": 238, "ZIP": 98323, "ZIPCODE": "98323", "COUNTY": "053", "ZIP_TYPE": "Standard", "PREFERRED_CITY": "CARBONADO", "FEATURE_SOURCE": "Polygon Centroid", "COUNTY_NAME": "Pierce County" }, "geometry": { "type": "Point", "coordinates": [ -122.068654081164183, 47.089950644057872 ] } },
{ "type": "Feature", "properties": { "OBJECTID": 239, "ZIP": 98325, "ZIPCODE": "98325", "COUNTY": "031", "ZIP_TYPE": "Standard", "PREFERRED_CITY": "CHIMACUM", "FEATURE_SOURCE": "Polygon Centroid", "COUNTY_NAME": "Jefferson County" }, "geometry": { "type": "Point", "coordinates": [ -122.779126613729545, 47.96092053677436 ] } },
{ "type": "Feature", "properties": { "OBJECTID": 240, "ZIP": 98327, "ZIPCODE": "98327", "COUNTY": "053", "ZIP_TYPE": "Standard", "PREFERRED_CITY": "DUPONT", "FEATURE_SOURCE": "Polygon Centroid", "COUNTY_NAME": "Pierce County" }, "geometry": { "type": "Point", "coordinates": [ -122.654288978315506, 47.104890698045558 ] } },
{ "type": "Feature", "properties": { "OBJECTID": 241, "ZIP": 98328, "ZIPCODE": "98328", "COUNTY": "053", "ZIP_TYPE": "Standard", "PREFERRED_CITY": "EATONVILLE", "FEATURE_SOURCE": "Polygon Centroid", "COUNTY_NAME": "Pierce County" }, "geometry": { "type": "Point", "coordinates": [ -122.257321825853481, 46.871738299769007 ] } },
{ "type": "Feature", "properties": { "OBJECTID": 242, "ZIP": 98329, "ZIPCODE": "98329", "COUNTY": "035", "ZIP_TYPE": "Standard", "PREFERRED_CITY": "GIG HARBOR", "FEATURE_SOURCE": "Polygon Centroid", "COUNTY_NAME": "Kitsap County" }, "geometry": { "type": "Point", "coordinates": [ -122.650498757345147, 47.406741682221174 ] } },
{ "type": "Feature", "properties": { "OBJECTID": 243, "ZIP": 98329, "ZIPCODE": "98329", "COUNTY": "053", "ZIP_TYPE": "Standard", "PREFERRED_CITY": "GIG HARBOR", "FEATURE_SOURCE": "Polygon Centroid", "COUNTY_NAME": "Pierce County" }, "geometry": { "type": "Point", "coordinates": [ -122.726738858329924, 47.37751128309776 ] } },
{ "type": "Feature", "properties": { "OBJECTID": 244, "ZIP": 98330, "ZIPCODE": "98330", "COUNTY": "053", "ZIP_TYPE": "Standard", "PREFERRED_CITY": "ELBE", "FEATURE_SOURCE": "Polygon Centroid", "COUNTY_NAME": "Pierce County" }, "geometry": { "type": "Point", "coordinates": [ -122.165507983970471, 46.767832023957972 ] } },
{ "type": "Feature", "properties": { "OBJECTID": 245, "ZIP": 98332, "ZIPCODE": "98332", "COUNTY": "053", "ZIP_TYPE": "Standard", "PREFERRED_CITY": "GIG HARBOR", "FEATURE_SOURCE": "Polygon Centroid", "COUNTY_NAME": "Pierce County" }, "geometry": { "type": "Point", "coordinates": [ -122.597670565557209, 47.365951925825044 ] } },
{ "type": "Feature", "properties": { "OBJECTID": 246, "ZIP": 98333, "ZIPCODE": "98333", "COUNTY": "053", "ZIP_TYPE": "Standard", "PREFERRED_CITY": "FOX ISLAND", "FEATURE_SOURCE": "Polygon Centroid", "COUNTY_NAME": "Pierce County" }, "geometry": { "type": "Point", "coordinates": [ -122.624269232825824, 47.246604404215681 ] } },
{ "type": "Feature", "properties": { "OBJECTID": 247, "ZIP": 98335, "ZIPCODE": "98335", "COUNTY": "053", "ZIP_TYPE": "Standard", "PREFERRED_CITY": "GIG HARBOR", "FEATURE_SOURCE": "Polygon Centroid", "COUNTY_NAME": "Pierce County" }, "geometry": { "type": "Point", "coordinates": [ -122.585227484671478, 47.292713653457305 ] } },
{ "type": "Feature", "properties": { "OBJECTID": 248, "ZIP": 98337, "ZIPCODE": "98337", "COUNTY": "035", "ZIP_TYPE": "Standard", "PREFERRED_CITY": "BREMERTON", "FEATURE_SOURCE": "Polygon Centroid", "COUNTY_NAME": "Kitsap County" }, "geometry": { "type": "Point", "coordinates": [ -122.63540804732628, 47.570424476890707 ] } },
{ "type": "Feature", "properties": { "OBJECTID": 249, "ZIP": 98338, "ZIPCODE": "98338", "COUNTY": "053", "ZIP_TYPE": "Standard", "PREFERRED_CITY": "GRAHAM", "FEATURE_SOURCE": "Polygon Centroid", "COUNTY_NAME": "Pierce County" }, "geometry": { "type": "Point", "coordinates": [ -122.286085628820146, 47.018587744841923 ] } },
{ "type": "Feature", "properties": { "OBJECTID": 250, "ZIP": 98339, "ZIPCODE": "98339", "COUNTY": "031", "ZIP_TYPE": "Standard", "PREFERRED_CITY": "PORT HADLOCK", "FEATURE_SOURCE": "Polygon Centroid", "COUNTY_NAME": "Jefferson County" }, "geometry": { "type": "Point", "coordinates": [ -122.753573589603221, 48.017719150046524 ] } },
{ "type": "Feature", "properties": { "OBJECTID": 251, "ZIP": 98340, "ZIPCODE": "98340", "COUNTY": "035", "ZIP_TYPE": "Standard", "PREFERRED_CITY": "HANSVILLE", "FEATURE_SOURCE": "Polygon Centroid", "COUNTY_NAME": "Kitsap County" }, "geometry": { "type": "Point", "coordinates": [ -122.564243835104364, 47.905358904839069 ] } },
{ "type": "Feature", "properties": { "OBJECTID": 252, "ZIP": 98342, "ZIPCODE": "98342", "COUNTY": "035", "ZIP_TYPE": "Standard", "PREFERRED_CITY": "INDIANOLA", "FEATURE_SOURCE": "Polygon Centroid", "COUNTY_NAME": "Kitsap County" }, "geometry": { "type": "Point", "coordinates": [ -122.514093702906266, 47.755381474541082 ] } },
{ "type": "Feature", "properties": { "OBJECTID": 253, "ZIP": 98345, "ZIPCODE": "98345", "COUNTY": "035", "ZIP_TYPE": "PO Box", "PREFERRED_CITY": "KEYPORT", "FEATURE_SOURCE": "Polygon Centroid", "COUNTY_NAME": "Kitsap County" }, "geometry": { "type": "Point", "coordinates": [ -122.623454694039438, 47.698594761450387 ] } },
{ "type": "Feature", "properties": { "OBJECTID": 254, "ZIP": 98346, "ZIPCODE": "98346", "COUNTY": "035", "ZIP_TYPE": "Standard", "PREFERRED_CITY": "KINGSTON", "FEATURE_SOURCE": "Polygon Centroid", "COUNTY_NAME": "Kitsap County" }, "geometry": { "type": "Point", "coordinates": [ -122.532312861124126, 47.821154985440735 ] } },
{ "type": "Feature", "properties": { "OBJECTID": 255, "ZIP": 98349, "ZIPCODE": "98349", "COUNTY": "053", "ZIP_TYPE": "Standard", "PREFERRED_CITY": "LAKEBAY", "FEATURE_SOURCE": "Polygon Centroid", "COUNTY_NAME": "Pierce County" }, "geometry": { "type": "Point", "coordinates": [ -122.802961857676692, 47.255788229578847 ] } },
{ "type": "Feature", "properties": { "OBJECTID": 256, "ZIP": 98351, "ZIPCODE": "98351", "COUNTY": "053", "ZIP_TYPE": "Standard", "PREFERRED_CITY": "LONGBRANCH", "FEATURE_SOURCE": "Polygon Centroid", "COUNTY_NAME": "Pierce County" }, "geometry": { "type": "Point", "coordinates": [ -122.771274135189145, 47.204470672551686 ] } },
{ "type": "Feature", "properties": { "OBJECTID": 257, "ZIP": 98354, "ZIPCODE": "98354", "COUNTY": "033", "ZIP_TYPE": "Standard", "PREFERRED_CITY": "MILTON", "FEATURE_SOURCE": "Polygon Centroid", "COUNTY_NAME": "King County" }, "geometry": { "type": "Point", "coordinates": [ -122.321461398455128, 47.260909035055761 ] } },
{ "type": "Feature", "properties": { "OBJECTID": 258, "ZIP": 98354, "ZIPCODE": "98354", "COUNTY": "053", "ZIP_TYPE": "Standard", "PREFERRED_CITY": "MILTON", "FEATURE_SOURCE": "Polygon Centroid", "COUNTY_NAME": "Pierce County" }, "geometry": { "type": "Point", "coordinates": [ -122.315422779888834, 47.249338734330017 ] } },
{ "type": "Feature", "properties": { "OBJECTID": 259, "ZIP": 98358, "ZIPCODE": "98358", "COUNTY": "031", "ZIP_TYPE": "Standard", "PREFERRED_CITY": "NORDLAND", "FEATURE_SOURCE": "Polygon Centroid", "COUNTY_NAME": "Jefferson County" }, "geometry": { "type": "Point", "coordinates": [ -122.683322759716376, 48.029527863519782 ] } },
{ "type": "Feature", "properties": { "OBJECTID": 260, "ZIP": 98359, "ZIPCODE": "98359", "COUNTY": "035", "ZIP_TYPE": "Standard", "PREFERRED_CITY": "OLALLA", "FEATURE_SOURCE": "Polygon Centroid", "COUNTY_NAME": "Kitsap County" }, "geometry": { "type": "Point", "coordinates": [ -122.575081601537264, 47.430577448389108 ] } },
{ "type": "Feature", "properties": { "OBJECTID": 261, "ZIP": 98360, "ZIPCODE": "98360", "COUNTY": "053", "ZIP_TYPE": "Standard", "PREFERRED_CITY": "ORTING", "FEATURE_SOURCE": "Polygon Centroid", "COUNTY_NAME": "Pierce County" }, "geometry": { "type": "Point", "coordinates": [ -122.082898372124845, 46.957433643367523 ] } },
{ "type": "Feature", "properties": { "OBJECTID": 262, "ZIP": 98365, "ZIPCODE": "98365", "COUNTY": "031", "ZIP_TYPE": "Standard", "PREFERRED_CITY": "PORT LUDLOW", "FEATURE_SOURCE": "Polygon Centroid", "COUNTY_NAME": "Jefferson County" }, "geometry": { "type": "Point", "coordinates": [ -122.703536368469784, 47.895150986276313 ] } },
{ "type": "Feature", "properties": { "OBJECTID": 263, "ZIP": 98366, "ZIPCODE": "98366", "COUNTY": "035", "ZIP_TYPE": "Standard", "PREFERRED_CITY": "PORT ORCHARD", "FEATURE_SOURCE": "Polygon Centroid", "COUNTY_NAME": "Kitsap County" }, "geometry": { "type": "Point", "coordinates": [ -122.583722463313407, 47.53286505617524 ] } },
{ "type": "Feature", "properties": { "OBJECTID": 264, "ZIP": 98367, "ZIPCODE": "98367", "COUNTY": "035", "ZIP_TYPE": "Standard", "PREFERRED_CITY": "PORT ORCHARD", "FEATURE_SOURCE": "Polygon Centroid", "COUNTY_NAME": "Kitsap County" }, "geometry": { "type": "Point", "coordinates": [ -122.67664503224843, 47.460985222382867 ] } },
{ "type": "Feature", "properties": { "OBJECTID": 265, "ZIP": 98368, "ZIPCODE": "98368", "COUNTY": "031", "ZIP_TYPE": "Standard", "PREFERRED_CITY": "PORT TOWNSEND", "FEATURE_SOURCE": "Polygon Centroid", "COUNTY_NAME": "Jefferson County" }, "geometry": { "type": "Point", "coordinates": [ -122.84765620581706, 47.967193713287344 ] } },
{ "type": "Feature", "properties": { "OBJECTID": 266, "ZIP": 98370, "ZIPCODE": "98370", "COUNTY": "035", "ZIP_TYPE": "Standard", "PREFERRED_CITY": "POULSBO", "FEATURE_SOURCE": "Polygon Centroid", "COUNTY_NAME": "Kitsap County" }, "geometry": { "type": "Point", "coordinates": [ -122.625233538220698, 47.756094610637021 ] } },
{ "type": "Feature", "properties": { "OBJECTID": 267, "ZIP": 98371, "ZIPCODE": "98371", "COUNTY": "053", "ZIP_TYPE": "Standard", "PREFERRED_CITY": "PUYALLUP", "FEATURE_SOURCE": "Polygon Centroid", "COUNTY_NAME": "Pierce County" }, "geometry": { "type": "Point", "coordinates": [ -122.324900741297384, 47.18840403605941 ] } },
{ "type": "Feature", "properties": { "OBJECTID": 268, "ZIP": 98372, "ZIPCODE": "98372", "COUNTY": "053", "ZIP_TYPE": "Standard", "PREFERRED_CITY": "PUYALLUP", "FEATURE_SOURCE": "Polygon Centroid", "COUNTY_NAME": "Pierce County" }, "geometry": { "type": "Point", "coordinates": [ -122.274846185980209, 47.21318489723329 ] } },
{ "type": "Feature", "properties": { "OBJECTID": 269, "ZIP": 98373, "ZIPCODE": "98373", "COUNTY": "053", "ZIP_TYPE": "Standard", "PREFERRED_CITY": "PUYALLUP", "FEATURE_SOURCE": "Polygon Centroid", "COUNTY_NAME": "Pierce County" }, "geometry": { "type": "Point", "coordinates": [ -122.325207612607841, 47.147726634982924 ] } },
{ "type": "Feature", "properties": { "OBJECTID": 270, "ZIP": 98374, "ZIPCODE": "98374", "COUNTY": "053", "ZIP_TYPE": "Standard", "PREFERRED_CITY": "PUYALLUP", "FEATURE_SOURCE": "Polygon Centroid", "COUNTY_NAME": "Pierce County" }, "geometry": { "type": "Point", "coordinates": [ -122.262076514118789, 47.129844564849058 ] } },
{ "type": "Feature", "properties": { "OBJECTID": 271, "ZIP": 98375, "ZIPCODE": "98375", "COUNTY": "053", "ZIP_TYPE": "Standard", "PREFERRED_CITY": "PUYALLUP", "FEATURE_SOURCE": "Polygon Centroid", "COUNTY_NAME": "Pierce County" }, "geometry": { "type": "Point", "coordinates": [ -122.325455850474967, 47.103120116326956 ] } },
{ "type": "Feature", "properties": { "OBJECTID": 272, "ZIP": 98376, "ZIPCODE": "98376", "COUNTY": "031", "ZIP_TYPE": "Standard", "PREFERRED_CITY": "QUILCENE", "FEATURE_SOURCE": "Polygon Centroid", "COUNTY_NAME": "Jefferson County" }, "geometry": { "type": "Point", "coordinates": [ -122.886846142960039, 47.87357580463523 ] } },
{ "type": "Feature", "properties": { "OBJECTID": 273, "ZIP": 98380, "ZIPCODE": "98380", "COUNTY": "035", "ZIP_TYPE": "Standard", "PREFERRED_CITY": "SEABECK", "FEATURE_SOURCE": "Polygon Centroid", "COUNTY_NAME": "Kitsap County" }, "geometry": { "type": "Point", "coordinates": [ -122.896538039366376, 47.578149476535231 ] } },
{ "type": "Feature", "properties": { "OBJECTID": 274, "ZIP": 98380, "ZIPCODE": "98380", "COUNTY": "045", "ZIP_TYPE": "Standard", "PREFERRED_CITY": "SEABECK", "FEATURE_SOURCE": "Polygon Centroid", "COUNTY_NAME": "Mason County" }, "geometry": { "type": "Point", "coordinates": [ -122.982573358762011, 47.513191422025045 ] } },
{ "type": "Feature", "properties": { "OBJECTID": 275, "ZIP": 98382, "ZIPCODE": "98382", "COUNTY": "009", "ZIP_TYPE": "Standard", "PREFERRED_CITY": "SEQUIM", "FEATURE_SOURCE": "Polygon Centroid", "COUNTY_NAME": "Clallam County" }, "geometry": { "type": "Point", "coordinates": [ -123.084693280281556, 48.010256636301079 ] } },
{ "type": "Feature", "properties": { "OBJECTID": 276, "ZIP": 98382, "ZIPCODE": "98382", "COUNTY": "037", "ZIP_TYPE": "Standard", "PREFERRED_CITY": "SEQUIM", "FEATURE_SOURCE": "Polygon Centroid", "COUNTY_NAME": "Kittitas County" }, "geometry": { "type": "Point", "coordinates": [ -122.918329070590019, 48.026081506539093 ] } },
{ "type": "Feature", "properties": { "OBJECTID": 277, "ZIP": 98383, "ZIPCODE": "98383", "COUNTY": "035", "ZIP_TYPE": "Standard", "PREFERRED_CITY": "SILVERDALE", "FEATURE_SOURCE": "Polygon Centroid", "COUNTY_NAME": "Kitsap County" }, "geometry": { "type": "Point", "coordinates": [ -122.71847120131963, 47.662322246290785 ] } },
{ "type": "Feature", "properties": { "OBJECTID": 278, "ZIP": 98385, "ZIPCODE": "98385", "COUNTY": "053", "ZIP_TYPE": "Standard", "PREFERRED_CITY": "SOUTH PRAIRIE", "FEATURE_SOURCE": "Polygon Centroid", "COUNTY_NAME": "Pierce County" }, "geometry": { "type": "Point", "coordinates": [ -122.093747292659927, 47.137311588094086 ] } },
{ "type": "Feature", "properties": { "OBJECTID": 279, "ZIP": 98387, "ZIPCODE": "98387", "COUNTY": "053", "ZIP_TYPE": "Standard", "PREFERRED_CITY": "SPANAWAY", "FEATURE_SOURCE": "Polygon Centroid", "COUNTY_NAME": "Pierce County" }, "geometry": { "type": "Point", "coordinates": [ -122.389447234590435, 47.059750350080691 ] } },
{ "type": "Feature", "properties": { "OBJECTID": 280, "ZIP": 98388, "ZIPCODE": "98388", "COUNTY": "053", "ZIP_TYPE": "Standard", "PREFERRED_CITY": "STEILACOOM", "FEATURE_SOURCE": "Polygon Centroid", "COUNTY_NAME": "Pierce County" }, "geometry": { "type": "Point", "coordinates": [ -122.684044762983319, 47.209635717605728 ] } },
{ "type": "Feature", "properties": { "OBJECTID": 281, "ZIP": 98390, "ZIPCODE": "98390", "COUNTY": "053", "ZIP_TYPE": "Standard", "PREFERRED_CITY": "SUMNER", "FEATURE_SOURCE": "Polygon Centroid", "COUNTY_NAME": "Pierce County" }, "geometry": { "type": "Point", "coordinates": [ -122.229695519135646, 47.212212856265715 ] } },
{ "type": "Feature", "properties": { "OBJECTID": 282, "ZIP": 98391, "ZIPCODE": "98391", "COUNTY": "053", "ZIP_TYPE": "Standard", "PREFERRED_CITY": "BONNEY LAKE", "FEATURE_SOURCE": "Polygon Centroid", "COUNTY_NAME": "Pierce County" }, "geometry": { "type": "Point", "coordinates": [ -122.172490810366511, 47.180585266971171 ] } },
{ "type": "Feature", "properties": { "OBJECTID": 283, "ZIP": 98392, "ZIPCODE": "98392", "COUNTY": "035", "ZIP_TYPE": "Standard", "PREFERRED_CITY": "SUQUAMISH", "FEATURE_SOURCE": "Polygon Centroid", "COUNTY_NAME": "Kitsap County" }, "geometry": { "type": "Point", "coordinates": [ -122.563868086317797, 47.734784906854749 ] } },
{ "type": "Feature", "properties": { "OBJECTID": 284, "ZIP": 98394, "ZIPCODE": "98394", "COUNTY": "053", "ZIP_TYPE": "Standard", "PREFERRED_CITY": "VAUGHN", "FEATURE_SOURCE": "Polygon Centroid", "COUNTY_NAME": "Pierce County" }, "geometry": { "type": "Point", "coordinates": [ -122.776004091633297, 47.323908169942506 ] } },
{ "type": "Feature", "properties": { "OBJECTID": 285, "ZIP": 98396, "ZIPCODE": "98396", "COUNTY": "053", "ZIP_TYPE": "Standard", "PREFERRED_CITY": "WILKESON", "FEATURE_SOURCE": "Polygon Centroid", "COUNTY_NAME": "Pierce County" }, "geometry": { "type": "Point", "coordinates": [ -122.033653144094529, 47.109541365251808 ] } },
{ "type": "Feature", "properties": { "OBJECTID": 286, "ZIP": 98402, "ZIPCODE": "98402", "COUNTY": "053", "ZIP_TYPE": "Standard", "PREFERRED_CITY": "TACOMA", "FEATURE_SOURCE": "Polygon Centroid", "COUNTY_NAME": "Pierce County" }, "geometry": { "type": "Point", "coordinates": [ -122.43955290668714, 47.248566373153729 ] } },
{ "type": "Feature", "properties": { "OBJECTID": 287, "ZIP": 98403, "ZIPCODE": "98403", "COUNTY": "053", "ZIP_TYPE": "Standard", "PREFERRED_CITY": "TACOMA", "FEATURE_SOURCE": "Polygon Centroid", "COUNTY_NAME": "Pierce County" }, "geometry": { "type": "Point", "coordinates": [ -122.457038579689652, 47.266373847618496 ] } },
{ "type": "Feature", "properties": { "OBJECTID": 288, "ZIP": 98404, "ZIPCODE": "98404", "COUNTY": "053", "ZIP_TYPE": "Standard", "PREFERRED_CITY": "TACOMA", "FEATURE_SOURCE": "Polygon Centroid", "COUNTY_NAME": "Pierce County" }, "geometry": { "type": "Point", "coordinates": [ -122.410767535230477, 47.210082677661688 ] } },
{ "type": "Feature", "properties": { "OBJECTID": 289, "ZIP": 98405, "ZIPCODE": "98405", "COUNTY": "053", "ZIP_TYPE": "Standard", "PREFERRED_CITY": "TACOMA", "FEATURE_SOURCE": "Polygon Centroid", "COUNTY_NAME": "Pierce County" }, "geometry": { "type": "Point", "coordinates": [ -122.472585205167789, 47.245850854120604 ] } },
{ "type": "Feature", "properties": { "OBJECTID": 290, "ZIP": 98406, "ZIPCODE": "98406", "COUNTY": "053", "ZIP_TYPE": "Standard", "PREFERRED_CITY": "TACOMA", "FEATURE_SOURCE": "Polygon Centroid", "COUNTY_NAME": "Pierce County" }, "geometry": { "type": "Point", "coordinates": [ -122.508751055762843, 47.262267387449526 ] } },
{ "type": "Feature", "properties": { "OBJECTID": 291, "ZIP": 98407, "ZIPCODE": "98407", "COUNTY": "053", "ZIP_TYPE": "Standard", "PREFERRED_CITY": "TACOMA", "FEATURE_SOURCE": "Polygon Centroid", "COUNTY_NAME": "Pierce County" }, "geometry": { "type": "Point", "coordinates": [ -122.51154184849581, 47.288514174637804 ] } },
{ "type": "Feature", "properties": { "OBJECTID": 292, "ZIP": 98408, "ZIPCODE": "98408", "COUNTY": "053", "ZIP_TYPE": "Standard", "PREFERRED_CITY": "TACOMA", "FEATURE_SOURCE": "Polygon Centroid", "COUNTY_NAME": "Pierce County" }, "geometry": { "type": "Point", "coordinates": [ -122.446508949661137, 47.197981925027726 ] } },
{ "type": "Feature", "properties": { "OBJECTID": 293, "ZIP": 98409, "ZIPCODE": "98409", "COUNTY": "053", "ZIP_TYPE": "Standard", "PREFERRED_CITY": "TACOMA", "FEATURE_SOURCE": "Polygon Centroid", "COUNTY_NAME": "Pierce County" }, "geometry": { "type": "Point", "coordinates": [ -122.481555206005396, 47.210742169790407 ] } },
{ "type": "Feature", "properties": { "OBJECTID": 294, "ZIP": 98416, "ZIPCODE": "98416", "COUNTY": "053", "ZIP_TYPE": "Unique", "PREFERRED_CITY": "TACOMA", "FEATURE_SOURCE": "Polygon Centroid", "COUNTY_NAME": "Pierce County" }, "geometry": { "type": "Point", "coordinates": [ -122.481188418854529, 47.261841427828195 ] } },
{ "type": "Feature", "properties": { "OBJECTID": 295, "ZIP": 98418, "ZIPCODE": "98418", "COUNTY": "053", "ZIP_TYPE": "Standard", "PREFERRED_CITY": "TACOMA", "FEATURE_SOURCE": "Polygon Centroid", "COUNTY_NAME": "Pierce County" }, "geometry": { "type": "Point", "coordinates": [ -122.446648925291512, 47.223078873258537 ] } },
{ "type": "Feature", "properties": { "OBJECTID": 296, "ZIP": 98421, "ZIPCODE": "98421", "COUNTY": "053", "ZIP_TYPE": "Standard", "PREFERRED_CITY": "TACOMA", "FEATURE_SOURCE": "Polygon Centroid", "COUNTY_NAME": "Pierce County" }, "geometry": { "type": "Point", "coordinates": [ -122.401794987353668, 47.257467436298036 ] } },
{ "type": "Feature", "properties": { "OBJECTID": 297, "ZIP": 98422, "ZIPCODE": "98422", "COUNTY": "033", "ZIP_TYPE": "Standard", "PREFERRED_CITY": "TACOMA", "FEATURE_SOURCE": "Polygon Centroid", "COUNTY_NAME": "King County" }, "geometry": { "type": "Point", "coordinates": [ -122.333672912043383, 47.26000523457494 ] } },
{ "type": "Feature", "properties": { "OBJECTID": 298, "ZIP": 98422, "ZIPCODE": "98422", "COUNTY": "053", "ZIP_TYPE": "Standard", "PREFERRED_CITY": "TACOMA", "FEATURE_SOURCE": "Polygon Centroid", "COUNTY_NAME": "Pierce County" }, "geometry": { "type": "Point", "coordinates": [ -122.391268171919592, 47.289443835054598 ] } },
{ "type": "Feature", "properties": { "OBJECTID": 299, "ZIP": 98424, "ZIPCODE": "98424", "COUNTY": "053", "ZIP_TYPE": "Standard", "PREFERRED_CITY": "TACOMA", "FEATURE_SOURCE": "Polygon Centroid", "COUNTY_NAME": "Pierce County" }, "geometry": { "type": "Point", "coordinates": [ -122.351788506407246, 47.234933475290973 ] } },
{ "type": "Feature", "properties": { "OBJECTID": 300, "ZIP": 98430, "ZIPCODE": "98430", "COUNTY": "053", "ZIP_TYPE": "Standard", "PREFERRED_CITY": "CAMP MURRAY", "FEATURE_SOURCE": "Polygon Centroid", "COUNTY_NAME": "Pierce County" }, "geometry": { "type": "Point", "coordinates": [ -122.569210714645237, 47.117092379461312 ] } },
{ "type": "Feature", "properties": { "OBJECTID": 301, "ZIP": 98431, "ZIPCODE": "98431", "COUNTY": "053", "ZIP_TYPE": "Standard", "PREFERRED_CITY": "TACOMA", "FEATURE_SOURCE": "Polygon Centroid", "COUNTY_NAME": "Pierce County" }, "geometry": { "type": "Point", "coordinates": [ -122.551990808691514, 47.109148131901534 ] } },
{ "type": "Feature", "properties": { "OBJECTID": 302, "ZIP": 98433, "ZIPCODE": "98433", "COUNTY": "053", "ZIP_TYPE": "Standard", "PREFERRED_CITY": "TACOMA", "FEATURE_SOURCE": "Polygon Centroid", "COUNTY_NAME": "Pierce County" }, "geometry": { "type": "Point", "coordinates": [ -122.552124612898751, 47.054216591214235 ] } },
{ "type": "Feature", "properties": { "OBJECTID": 303, "ZIP": 98438, "ZIPCODE": "98438", "COUNTY": "053", "ZIP_TYPE": "Standard", "PREFERRED_CITY": "TACOMA", "FEATURE_SOURCE": "Polygon Centroid", "COUNTY_NAME": "Pierce County" }, "geometry": { "type": "Point", "coordinates": [ -122.488853022723035, 47.123717525802498 ] } },
{ "type": "Feature", "properties": { "OBJECTID": 304, "ZIP": 98439, "ZIPCODE": "98439", "COUNTY": "053", "ZIP_TYPE": "Standard", "PREFERRED_CITY": "LAKEWOOD", "FEATURE_SOURCE": "Polygon Centroid", "COUNTY_NAME": "Pierce County" }, "geometry": { "type": "Point", "coordinates": [ -122.531167408042748, 47.122755495537909 ] } },
{ "type": "Feature", "properties": { "OBJECTID": 305, "ZIP": 98443, "ZIPCODE": "98443", "COUNTY": "053", "ZIP_TYPE": "Standard", "PREFERRED_CITY": "TACOMA", "FEATURE_SOURCE": "Polygon Centroid", "COUNTY_NAME": "Pierce County" }, "geometry": { "type": "Point", "coordinates": [ -122.375869383638019, 47.20526920870045 ] } },
{ "type": "Feature", "properties": { "OBJECTID": 306, "ZIP": 98444, "ZIPCODE": "98444", "COUNTY": "053", "ZIP_TYPE": "Standard", "PREFERRED_CITY": "TACOMA", "FEATURE_SOURCE": "Polygon Centroid", "COUNTY_NAME": "Pierce County" }, "geometry": { "type": "Point", "coordinates": [ -122.459617674950323, 47.153499258959677 ] } },
{ "type": "Feature", "properties": { "OBJECTID": 307, "ZIP": 98445, "ZIPCODE": "98445", "COUNTY": "053", "ZIP_TYPE": "Standard", "PREFERRED_CITY": "TACOMA", "FEATURE_SOURCE": "Polygon Centroid", "COUNTY_NAME": "Pierce County" }, "geometry": { "type": "Point", "coordinates": [ -122.409668630550541, 47.144360548966297 ] } },